{"type":"FeatureCollection","features":[{"type":"Feature","id":"monumenter.1","geometry":{"type":"Point","coordinates":[12.563269688605702,55.674194067522194]},"geometry_name":"wkb_geometry","properties":{"id":1,"navn":"frihedsstøtten","loebenummer":54,"web_id":24,"x":724046,"y":6175575}},{"type":"Feature","id":"monumenter.2","geometry":{"type":"Point","coordinates":[12.564983551906296,55.675297101918495]},"geometry_name":"wkb_geometry","properties":{"id":2,"navn":"Zodiac","loebenummer":274,"web_id":311,"x":724148,"y":6175703}},{"type":"Feature","id":"monumenter.3","geometry":{"type":"Point","coordinates":[12.569086559411513,55.675359569461705]},"geometry_name":"wkb_geometry","properties":{"id":5,"navn":"H.C. Andersen","loebenummer":192,"web_id":235,"x":724405,"y":6175724}},{"type":"Feature","id":"monumenter.4","geometry":{"type":"Point","coordinates":[12.568881056277906,55.675596257625955]},"geometry_name":"wkb_geometry","properties":{"id":6,"navn":"Dragespringvandet","loebenummer":112,"web_id":164,"x":724391,"y":6175749}},{"type":"Feature","id":"monumenter.5","geometry":{"type":"Point","coordinates":[12.569965829653452,55.675807436621696]},"geometry_name":"wkb_geometry","properties":{"id":8,"navn":"Isbjørn","loebenummer":177,"web_id":222,"x":724458,"y":6175776}},{"type":"Feature","id":"monumenter.6","geometry":{"type":"Point","coordinates":[12.56982999037484,55.6757860965095]},"geometry_name":"wkb_geometry","properties":{"id":9,"navn":"Vægter","loebenummer":109,"web_id":162,"x":724449,"y":6175774}},{"type":"Feature","id":"monumenter.7","geometry":{"type":"Point","coordinates":[12.56954553822766,55.67566380552408]},"geometry_name":"wkb_geometry","properties":{"id":10,"navn":"Ærkebiskop Absalon","loebenummer":108,"web_id":161,"x":724432,"y":6175759}},{"type":"Feature","id":"monumenter.8","geometry":{"type":"Point","coordinates":[12.572715113036425,55.674417136895705]},"geometry_name":"wkb_geometry","properties":{"id":11,"navn":"Moderkærlighed ","loebenummer":130,"web_id":180,"x":724639,"y":6175631}},{"type":"Feature","id":"monumenter.9","geometry":{"type":"Point","coordinates":[12.57052273596897,55.675160252008226]},"geometry_name":"wkb_geometry","properties":{"id":12,"navn":"Bjørnespringvandet","loebenummer":111,"web_id":29,"x":724497,"y":6175706}},{"type":"Feature","id":"monumenter.10","geometry":{"type":"Point","coordinates":[12.574012247385465,55.67077512681781]},"geometry_name":"wkb_geometry","properties":{"id":15,"navn":"Spejl og fortætning","loebenummer":303,"web_id":342,"x":724741,"y":6175230}},{"type":"Feature","id":"monumenter.11","geometry":{"type":"Point","coordinates":[12.577934736519621,55.67656860333377]},"geometry_name":"wkb_geometry","properties":{"id":18,"navn":"Quadriga","loebenummer":185,"web_id":230,"x":724954,"y":6175887}},{"type":"Feature","id":"monumenter.12","geometry":{"type":"Point","coordinates":[12.574098126959557,55.676078800259646]},"geometry_name":"wkb_geometry","properties":{"id":20,"navn":"Vandkunsten","loebenummer":113,"web_id":165,"x":724716,"y":6175820}},{"type":"Feature","id":"monumenter.13","geometry":{"type":"Point","coordinates":[12.577674111385527,55.677359741892495]},"geometry_name":"wkb_geometry","properties":{"id":22,"navn":"Slægt løfter slægt","loebenummer":305,"web_id":344,"x":724933,"y":6175974}},{"type":"Feature","id":"monumenter.14","geometry":{"type":"Point","coordinates":[12.579982311927262,55.67794081778337]},"geometry_name":"wkb_geometry","properties":{"id":24,"navn":"Absalon","loebenummer":63,"web_id":117,"x":725075,"y":6176046}},{"type":"Feature","id":"monumenter.15","geometry":{"type":"Point","coordinates":[12.581303769959282,55.67652848336533]},"geometry_name":"wkb_geometry","properties":{"id":26,"navn":"Frederik VII","loebenummer":61,"web_id":115,"x":725166,"y":6175893}},{"type":"Feature","id":"monumenter.16","geometry":{"type":"Point","coordinates":[12.583309586266683,55.676623523864194]},"geometry_name":"wkb_geometry","properties":{"id":27,"navn":"Tordenskjold","loebenummer":68,"web_id":122,"x":725292,"y":6175910}},{"type":"Feature","id":"monumenter.17","geometry":{"type":"Point","coordinates":[12.585979922423046,55.677744661718656]},"geometry_name":"wkb_geometry","properties":{"id":28,"navn":"Niels Juel","loebenummer":62,"web_id":116,"x":725453,"y":6176044}},{"type":"Feature","id":"monumenter.18","geometry":{"type":"Point","coordinates":[12.587539924186457,55.68062429547278]},"geometry_name":"wkb_geometry","properties":{"id":29,"navn":"Mindeanker","loebenummer":173,"web_id":57,"x":725534,"y":6176369}},{"type":"Feature","id":"monumenter.19","geometry":{"type":"Point","coordinates":[12.57961174970674,55.67771210927013]},"geometry_name":"wkb_geometry","properties":{"id":30,"navn":"Fiskerkone","loebenummer":137,"web_id":186,"x":725053,"y":6176019}},{"type":"Feature","id":"monumenter.20","geometry":{"type":"Point","coordinates":[12.579574373936392,55.678839767851734]},"geometry_name":"wkb_geometry","properties":{"id":33,"navn":"Storkespringvandet","loebenummer":105,"web_id":158,"x":725044,"y":6176145}},{"type":"Feature","id":"monumenter.21","geometry":{"type":"Point","coordinates":[12.575909952066304,55.68131659722533]},"geometry_name":"wkb_geometry","properties":{"id":35,"navn":"Tycho Brahe","loebenummer":89,"web_id":145,"x":724800,"y":6176408}},{"type":"Feature","id":"monumenter.22","geometry":{"type":"Point","coordinates":[12.575567584545187,55.681439254623974]},"geometry_name":"wkb_geometry","properties":{"id":37,"navn":"Vandkunst","loebenummer":221,"web_id":260,"x":724778,"y":6176421}},{"type":"Feature","id":"monumenter.23","geometry":{"type":"Point","coordinates":[12.573960329610511,55.682640292965885]},"geometry_name":"wkb_geometry","properties":{"id":39,"navn":"Hyldemor","loebenummer":269,"web_id":304,"x":724670,"y":6176549}},{"type":"Feature","id":"monumenter.24","geometry":{"type":"Point","coordinates":[12.57587144022769,55.67973618417357]},"geometry_name":"wkb_geometry","properties":{"id":40,"navn":"Vandkunst","loebenummer":222,"web_id":261,"x":724806,"y":6176232}},{"type":"Feature","id":"monumenter.25","geometry":{"type":"Point","coordinates":[12.57589114099867,55.679861842898205]},"geometry_name":"wkb_geometry","properties":{"id":41,"navn":"Corfitz Ulfeldt","loebenummer":240,"web_id":277,"x":724807,"y":6176246}},{"type":"Feature","id":"monumenter.26","geometry":{"type":"Point","coordinates":[12.573519736483215,55.679371873734475]},"geometry_name":"wkb_geometry","properties":{"id":42,"navn":"Skålfrugt","loebenummer":234,"web_id":271,"x":724661,"y":6176184}},{"type":"Feature","id":"monumenter.27","geometry":{"type":"Point","coordinates":[12.570863680059537,55.67978625412488]},"geometry_name":"wkb_geometry","properties":{"id":43,"navn":"Døden og moderen","loebenummer":51,"web_id":105,"x":724491,"y":6176222}},{"type":"Feature","id":"monumenter.28","geometry":{"type":"Point","coordinates":[12.572351529298302,55.6780732942342]},"geometry_name":"wkb_geometry","properties":{"id":44,"navn":"Caritasspringvandet","loebenummer":101,"web_id":154,"x":724595,"y":6176036}},{"type":"Feature","id":"monumenter.29","geometry":{"type":"Point","coordinates":[12.565769396728985,55.67960830742741]},"geometry_name":"wkb_geometry","properties":{"id":45,"navn":"Bryderne","loebenummer":24,"web_id":71,"x":724172,"y":6176186}},{"type":"Feature","id":"monumenter.30","geometry":{"type":"Point","coordinates":[12.564294329472181,55.680156672038656]},"geometry_name":"wkb_geometry","properties":{"id":47,"navn":"Firbensdræberen","loebenummer":26,"web_id":74,"x":724076,"y":6176242}},{"type":"Feature","id":"monumenter.31","geometry":{"type":"Point","coordinates":[12.564912804427097,55.67986614920184]},"geometry_name":"wkb_geometry","properties":{"id":48,"navn":"Satyr med klangbækkener","loebenummer":22,"web_id":69,"x":724117,"y":6176211}},{"type":"Feature","id":"monumenter.32","geometry":{"type":"Point","coordinates":[12.564690537251515,55.68603759664893]},"geometry_name":"wkb_geometry","properties":{"id":61,"navn":"Nilen","loebenummer":31,"web_id":20,"x":724068,"y":6176897}},{"type":"Feature","id":"monumenter.33","geometry":{"type":"Point","coordinates":[12.565136008038158,55.68647661529422]},"geometry_name":"wkb_geometry","properties":{"id":62,"navn":"Tiberen","loebenummer":32,"web_id":84,"x":724093,"y":6176947}},{"type":"Feature","id":"monumenter.34","geometry":{"type":"Point","coordinates":[12.562578594667595,55.68702876457112]},"geometry_name":"wkb_geometry","properties":{"id":63,"navn":"Siddende unge mennesker","loebenummer":142,"web_id":190,"x":723929,"y":6177000}},{"type":"Feature","id":"monumenter.35","geometry":{"type":"Point","coordinates":[12.568103628994766,55.69125436515973]},"geometry_name":"wkb_geometry","properties":{"id":64,"navn":"Liggende figur","loebenummer":255,"web_id":290,"x":724252,"y":6177488}},{"type":"Feature","id":"monumenter.36","geometry":{"type":"Point","coordinates":[12.569393191989912,55.69236100988638]},"geometry_name":"wkb_geometry","properties":{"id":65,"navn":"Fredens port","loebenummer":251,"web_id":285,"x":724327,"y":6177615}},{"type":"Feature","id":"monumenter.37","geometry":{"type":"Point","coordinates":[12.573373862489774,55.69518707195215]},"geometry_name":"wkb_geometry","properties":{"id":68,"navn":"Omphalos","loebenummer":304,"web_id":343,"x":724561,"y":6177943}},{"type":"Feature","id":"monumenter.38","geometry":{"type":"Point","coordinates":[12.578678532704298,55.6872797486874]},"geometry_name":"wkb_geometry","properties":{"id":69,"navn":"Georg Brandes","loebenummer":277,"web_id":316,"x":724939,"y":6177080}},{"type":"Feature","id":"monumenter.39","geometry":{"type":"Point","coordinates":[12.58188914631084,55.68584507670261]},"geometry_name":"wkb_geometry","properties":{"id":70,"navn":"H.C. Andersen","loebenummer":64,"web_id":118,"x":725149,"y":6176931}},{"type":"Feature","id":"monumenter.40","geometry":{"type":"Point","coordinates":[12.59311118652656,55.68647702610615]},"geometry_name":"wkb_geometry","properties":{"id":71,"navn":"Havhestebrønd","loebenummer":159,"web_id":205,"x":725851,"y":6177038}},{"type":"Feature","id":"monumenter.41","geometry":{"type":"Point","coordinates":[12.597428370728638,55.6859422317526]},"geometry_name":"wkb_geometry","properties":{"id":72,"navn":"David","loebenummer":74,"web_id":130,"x":726125,"y":6176993}},{"type":"Feature","id":"monumenter.42","geometry":{"type":"Point","coordinates":[12.56879816781029,55.675724851192]},"geometry_name":"wkb_geometry","properties":{"id":180,"navn":"Nulpunkt Vesterport","loebenummer":79,"web_id":135,"x":724385,"y":6175763}},{"type":"Feature","id":"monumenter.43","geometry":{"type":"Point","coordinates":[12.570226971291708,55.674754761384825]},"geometry_name":"wkb_geometry","properties":{"id":182,"navn":"Den slanke, der løfter den tunge","loebenummer":262,"web_id":297,"x":724480,"y":6175660}},{"type":"Feature","id":"monumenter.44","geometry":{"type":"Point","coordinates":[12.573455612743258,55.6733377765301]},"geometry_name":"wkb_geometry","properties":{"id":183,"navn":"Danske sprogforskere","loebenummer":121,"web_id":172,"x":724691,"y":6175513}},{"type":"Feature","id":"monumenter.45","geometry":{"type":"Point","coordinates":[12.572972638387654,55.67321537620042]},"geometry_name":"wkb_geometry","properties":{"id":184,"navn":"Dantesøjlen","loebenummer":73,"web_id":129,"x":724662,"y":6175498}},{"type":"Feature","id":"monumenter.46","geometry":{"type":"Point","coordinates":[12.571798353871896,55.67295909097034]},"geometry_name":"wkb_geometry","properties":{"id":186,"navn":"Georg Zoëga","loebenummer":2,"web_id":81,"x":724589,"y":6175466}},{"type":"Feature","id":"monumenter.47","geometry":{"type":"Point","coordinates":[12.572723859534774,55.67248168685073]},"geometry_name":"wkb_geometry","properties":{"id":187,"navn":"Asmus Jacob Carstens","loebenummer":5,"web_id":36,"x":724650,"y":6175415}},{"type":"Feature","id":"monumenter.48","geometry":{"type":"Point","coordinates":[12.565164968273011,55.678641170364806]},"geometry_name":"wkb_geometry","properties":{"id":188,"navn":"Løve og løvinde","loebenummer":8,"web_id":39,"x":724140,"y":6176076}},{"type":"Feature","id":"monumenter.49","geometry":{"type":"Point","coordinates":[12.567306815072758,55.676680320186264]},"geometry_name":"wkb_geometry","properties":{"id":189,"navn":"Landsoldaten og den lille hornblæser","loebenummer":55,"web_id":108,"x":724286,"y":6175865}},{"type":"Feature","id":"monumenter.50","geometry":{"type":"Point","coordinates":[12.564237498513698,55.67616871902199]},"geometry_name":"wkb_geometry","properties":{"id":190,"navn":"De syv aksler","loebenummer":264,"web_id":299,"x":724096,"y":6175798}},{"type":"Feature","id":"monumenter.51","geometry":{"type":"Point","coordinates":[12.562889592505426,55.67801811671341]},"geometry_name":"wkb_geometry","properties":{"id":192,"navn":"Stauning-monumentet","loebenummer":197,"web_id":241,"x":724000,"y":6175999}},{"type":"Feature","id":"monumenter.52","geometry":{"type":"Point","coordinates":[12.56965493132687,55.67195734388589]},"geometry_name":"wkb_geometry","properties":{"id":193,"navn":"Rudolph Berg","loebenummer":82,"web_id":138,"x":724460,"y":6175347}},{"type":"Feature","id":"monumenter.53","geometry":{"type":"Point","coordinates":[12.56521895452656,55.68080489936451]},"geometry_name":"wkb_geometry","properties":{"id":195,"navn":"Satyr med bacchusbarn","loebenummer":21,"web_id":67,"x":724131,"y":6176317}},{"type":"Feature","id":"monumenter.54","geometry":{"type":"Point","coordinates":[12.56516243932518,55.68066793787506]},"geometry_name":"wkb_geometry","properties":{"id":197,"navn":"L.N. Hvidt","loebenummer":14,"web_id":1,"x":724128,"y":6176301}},{"type":"Feature","id":"monumenter.55","geometry":{"type":"Point","coordinates":[12.565953354220923,55.6821438894839]},"geometry_name":"wkb_geometry","properties":{"id":198,"navn":"Anders Sandøe Ørsted","loebenummer":13,"web_id":47,"x":724169,"y":6176468}},{"type":"Feature","id":"monumenter.56","geometry":{"type":"Point","coordinates":[12.566354822206371,55.68124677977152]},"geometry_name":"wkb_geometry","properties":{"id":200,"navn":"Natalie Zahle","loebenummer":15,"web_id":48,"x":724200,"y":6176370}},{"type":"Feature","id":"monumenter.57","geometry":{"type":"Point","coordinates":[12.566589714981381,55.6808631497686]},"geometry_name":"wkb_geometry","properties":{"id":201,"navn":"Jeanne d'Arc","loebenummer":16,"web_id":53,"x":724217,"y":6176328}},{"type":"Feature","id":"monumenter.58","geometry":{"type":"Point","coordinates":[12.568757162747868,55.68159527723857]},"geometry_name":"wkb_geometry","properties":{"id":203,"navn":"Vinsugende satyrdreng","loebenummer":17,"web_id":54,"x":724349,"y":6176416}},{"type":"Feature","id":"monumenter.59","geometry":{"type":"Point","coordinates":[12.56823712808799,55.68128205649831]},"geometry_name":"wkb_geometry","properties":{"id":204,"navn":"Hvilende satyr","loebenummer":28,"web_id":104,"x":724318,"y":6176380}},{"type":"Feature","id":"monumenter.60","geometry":{"type":"Point","coordinates":[12.568629349052532,55.68357009764136]},"geometry_name":"wkb_geometry","properties":{"id":205,"navn":"Jødernes flugt","loebenummer":230,"web_id":267,"x":724329,"y":6176635}},{"type":"Feature","id":"monumenter.61","geometry":{"type":"Point","coordinates":[12.564360312602542,55.68293913906004]},"geometry_name":"wkb_geometry","properties":{"id":206,"navn":"Hønsefødder ","loebenummer":259,"web_id":294,"x":724065,"y":6176551}},{"type":"Feature","id":"monumenter.62","geometry":{"type":"Point","coordinates":[12.565273264144706,55.68354362696388]},"geometry_name":"wkb_geometry","properties":{"id":207,"navn":"Borne","loebenummer":292,"web_id":332,"x":724119,"y":6176622}},{"type":"Feature","id":"monumenter.63","geometry":{"type":"Point","coordinates":[12.55814252937992,55.68158874149511]},"geometry_name":"wkb_geometry","properties":{"id":208,"navn":"Drukken faun","loebenummer":6,"web_id":38,"x":723682,"y":6176381}},{"type":"Feature","id":"monumenter.64","geometry":{"type":"Point","coordinates":[12.559823543350808,55.681002762865134]},"geometry_name":"wkb_geometry","properties":{"id":209,"navn":"Indagine nr. 70","loebenummer":306,"web_id":345,"x":723791,"y":6176321}},{"type":"Feature","id":"monumenter.65","geometry":{"type":"Point","coordinates":[12.565976703072497,55.68981721297881]},"geometry_name":"wkb_geometry","properties":{"id":210,"navn":"Skulptur","loebenummer":254,"web_id":288,"x":724127,"y":6177322}},{"type":"Feature","id":"monumenter.66","geometry":{"type":"Point","coordinates":[12.573707348270117,55.69544242933438]},"geometry_name":"wkb_geometry","properties":{"id":212,"navn":"Effort commun","loebenummer":256,"web_id":291,"x":724580,"y":6177972}},{"type":"Feature","id":"monumenter.67","geometry":{"type":"Point","coordinates":[12.579068336287307,55.696885453187036]},"geometry_name":"wkb_geometry","properties":{"id":213,"navn":"Væsen, der skubber kasse","loebenummer":258,"web_id":293,"x":724909,"y":6178150}},{"type":"Feature","id":"monumenter.68","geometry":{"type":"Point","coordinates":[12.575494396546125,55.68927585759907]},"geometry_name":"wkb_geometry","properties":{"id":215,"navn":"Det lider mot skymning","loebenummer":34,"web_id":85,"x":724728,"y":6177292}},{"type":"Feature","id":"monumenter.69","geometry":{"type":"Point","coordinates":[12.575552704723705,55.68855967251362]},"geometry_name":"wkb_geometry","properties":{"id":216,"navn":"Tubalkain","loebenummer":10,"web_id":43,"x":724736,"y":6177213}},{"type":"Feature","id":"monumenter.70","geometry":{"type":"Point","coordinates":[12.577969458399938,55.686281299028835]},"geometry_name":"wkb_geometry","properties":{"id":217,"navn":"Caroline Amalie","loebenummer":65,"web_id":119,"x":724901,"y":6176967}},{"type":"Feature","id":"monumenter.71","geometry":{"type":"Point","coordinates":[12.56937063737102,55.68709175749327]},"geometry_name":"wkb_geometry","properties":{"id":218,"navn":"Valdemar Holmer","loebenummer":86,"web_id":142,"x":724356,"y":6177029}},{"type":"Feature","id":"monumenter.72","geometry":{"type":"Point","coordinates":[12.570879801961787,55.688112627918876]},"geometry_name":"wkb_geometry","properties":{"id":219,"navn":"H.V.S. Gredsted","loebenummer":87,"web_id":143,"x":724445,"y":6177148}},{"type":"Feature","id":"monumenter.73","geometry":{"type":"Point","coordinates":[12.56837319260608,55.68748112988851]},"geometry_name":"wkb_geometry","properties":{"id":220,"navn":"Skulptur","loebenummer":279,"web_id":318,"x":724291,"y":6177069}},{"type":"Feature","id":"monumenter.74","geometry":{"type":"Point","coordinates":[12.581342671689695,55.690656398261524]},"geometry_name":"wkb_geometry","properties":{"id":221,"navn":"Sophus Bauditz","loebenummer":36,"web_id":89,"x":725087,"y":6177465}},{"type":"Feature","id":"monumenter.75","geometry":{"type":"Point","coordinates":[12.584162094799177,55.69213706583477]},"geometry_name":"wkb_geometry","properties":{"id":222,"navn":"Sophus Schandorf","loebenummer":35,"web_id":88,"x":725256,"y":6177638}},{"type":"Feature","id":"monumenter.76","geometry":{"type":"Point","coordinates":[12.581419618825048,55.69158633130462]},"geometry_name":"wkb_geometry","properties":{"id":223,"navn":"Niels W. Gade","loebenummer":58,"web_id":111,"x":725087,"y":6177568}},{"type":"Feature","id":"monumenter.77","geometry":{"type":"Point","coordinates":[12.58415405360415,55.682209993503655]},"geometry_name":"wkb_geometry","properties":{"id":225,"navn":"Niels W. Gade","loebenummer":154,"web_id":200,"x":725313,"y":6176534}},{"type":"Feature","id":"monumenter.78","geometry":{"type":"Point","coordinates":[12.589946989778769,55.68129129567275]},"geometry_name":"wkb_geometry","properties":{"id":226,"navn":"En neapolitansk fisker","loebenummer":9,"web_id":42,"x":725682,"y":6176451}},{"type":"Feature","id":"monumenter.79","geometry":{"type":"Point","coordinates":[12.59143936141147,55.6815572124011]},"geometry_name":"wkb_geometry","properties":{"id":227,"navn":"Franklin D. Roosevelt","loebenummer":181,"web_id":226,"x":725774,"y":6176486}},{"type":"Feature","id":"monumenter.80","geometry":{"type":"Point","coordinates":[12.589404368499928,55.68174363262956]},"geometry_name":"wkb_geometry","properties":{"id":229,"navn":"C.W. Eckersberg","loebenummer":291,"web_id":331,"x":725645,"y":6176500}},{"type":"Feature","id":"monumenter.81","geometry":{"type":"Point","coordinates":[12.589581849505976,55.681684696747006]},"geometry_name":"wkb_geometry","properties":{"id":230,"navn":"Jørgen V. Sonne","loebenummer":180,"web_id":225,"x":725657,"y":6176494}},{"type":"Feature","id":"monumenter.82","geometry":{"type":"Point","coordinates":[12.592116898254446,55.6885098801079]},"geometry_name":"wkb_geometry","properties":{"id":231,"navn":"Neapolitansk fiskerdreng","loebenummer":49,"web_id":102,"x":725777,"y":6177261}},{"type":"Feature","id":"monumenter.83","geometry":{"type":"Point","coordinates":[12.591418135401508,55.6894251490009]},"geometry_name":"wkb_geometry","properties":{"id":232,"navn":"Danaide","loebenummer":50,"web_id":103,"x":725727,"y":6177360}},{"type":"Feature","id":"monumenter.84","geometry":{"type":"Point","coordinates":[12.590139818388884,55.690367749780165]},"geometry_name":"wkb_geometry","properties":{"id":233,"navn":"Liggende pige","loebenummer":155,"web_id":201,"x":725642,"y":6177461}},{"type":"Feature","id":"monumenter.85","geometry":{"type":"Point","coordinates":[12.589850515747447,55.691396342041706]},"geometry_name":"wkb_geometry","properties":{"id":234,"navn":"Frivillige og faldne","loebenummer":70,"web_id":124,"x":725618,"y":6177575}},{"type":"Feature","id":"monumenter.86","geometry":{"type":"Point","coordinates":[12.595295768239556,55.68933177734378]},"geometry_name":"wkb_geometry","properties":{"id":235,"navn":"Vore faldne","loebenummer":227,"web_id":265,"x":725972,"y":6177363}},{"type":"Feature","id":"monumenter.87","geometry":{"type":"Point","coordinates":[12.59500648753897,55.68805059255073]},"geometry_name":"wkb_geometry","properties":{"id":236,"navn":"Danske spaniensfrivillige","loebenummer":263,"web_id":298,"x":725961,"y":6177219}},{"type":"Feature","id":"monumenter.88","geometry":{"type":"Point","coordinates":[12.595742856135786,55.6882787152461]},"geometry_name":"wkb_geometry","properties":{"id":237,"navn":"Såret kvinde","loebenummer":220,"web_id":259,"x":726006,"y":6177247}},{"type":"Feature","id":"monumenter.89","geometry":{"type":"Point","coordinates":[12.596491437133086,55.68843231149952]},"geometry_name":"wkb_geometry","properties":{"id":238,"navn":"Hornmine","loebenummer":250,"web_id":284,"x":726052,"y":6177267}},{"type":"Feature","id":"monumenter.90","geometry":{"type":"Point","coordinates":[12.598368571668823,55.689896842786304]},"geometry_name":"wkb_geometry","properties":{"id":239,"navn":"Prinsesse Marie","loebenummer":67,"web_id":121,"x":726161,"y":6177436}},{"type":"Feature","id":"monumenter.91","geometry":{"type":"Point","coordinates":[12.600154057193564,55.69841111075663]},"geometry_name":"wkb_geometry","properties":{"id":240,"navn":"Holger Hammerich","loebenummer":48,"web_id":100,"x":726224,"y":6178388}},{"type":"Feature","id":"monumenter.92","geometry":{"type":"Point","coordinates":[12.587971394403672,55.69185454770326]},"geometry_name":"wkb_geometry","properties":{"id":243,"navn":"Nulpunktsten Østerport","loebenummer":85,"web_id":141,"x":725497,"y":6177619}},{"type":"Feature","id":"monumenter.93","geometry":{"type":"Point","coordinates":[12.588055921967634,55.69097453609256]},"geometry_name":"wkb_geometry","properties":{"id":244,"navn":"To søstre","loebenummer":116,"web_id":168,"x":725507,"y":6177522}},{"type":"Feature","id":"monumenter.94","geometry":{"type":"Point","coordinates":[12.588761677043955,55.690711528416045]},"geometry_name":"wkb_geometry","properties":{"id":248,"navn":"Carl Nielsen","loebenummer":134,"web_id":183,"x":725553,"y":6177495}},{"type":"Feature","id":"monumenter.95","geometry":{"type":"Point","coordinates":[12.59951303525886,55.69509099297996]},"geometry_name":"wkb_geometry","properties":{"id":250,"navn":"Ejner Mikkelsen","loebenummer":229,"web_id":266,"x":726203,"y":6178017}},{"type":"Feature","id":"monumenter.96","geometry":{"type":"Point","coordinates":[12.60022257067378,55.695540271782214]},"geometry_name":"wkb_geometry","properties":{"id":251,"navn":"Jutlandia","loebenummer":268,"web_id":303,"x":726245,"y":6178069}},{"type":"Feature","id":"monumenter.97","geometry":{"type":"Point","coordinates":[12.587261563196767,55.67030995199162]},"geometry_name":"wkb_geometry","properties":{"id":252,"navn":"Siddende kvinde","loebenummer":149,"web_id":198,"x":725576,"y":6175221}},{"type":"Feature","id":"monumenter.98","geometry":{"type":"Point","coordinates":[12.589301424870248,55.66785346432857]},"geometry_name":"wkb_geometry","properties":{"id":253,"navn":"Ko, der er i færd med at rejse sig","loebenummer":156,"web_id":203,"x":725719,"y":6174955}},{"type":"Feature","id":"monumenter.99","geometry":{"type":"Point","coordinates":[12.595358543837783,55.668871757268235]},"geometry_name":"wkb_geometry","properties":{"id":255,"navn":"Modstandsbevægelsens faldne","loebenummer":160,"web_id":206,"x":726094,"y":6175088}},{"type":"Feature","id":"monumenter.100","geometry":{"type":"Point","coordinates":[12.59374551578032,55.66968696449807]},"geometry_name":"wkb_geometry","properties":{"id":256,"navn":"Christian Holm","loebenummer":144,"web_id":194,"x":725988,"y":6175173}},{"type":"Feature","id":"monumenter.101","geometry":{"type":"Point","coordinates":[12.593912385063728,55.67033806626258]},"geometry_name":"wkb_geometry","properties":{"id":260,"navn":"De elskelige christianitter","loebenummer":213,"web_id":254,"x":725994,"y":6175246}},{"type":"Feature","id":"monumenter.102","geometry":{"type":"Point","coordinates":[12.594134798708701,55.67077123085028]},"geometry_name":"wkb_geometry","properties":{"id":262,"navn":"Nulpunkt Amagerport","loebenummer":75,"web_id":131,"x":726006,"y":6175295}},{"type":"Feature","id":"monumenter.103","geometry":{"type":"Point","coordinates":[12.594423646431462,55.671009573805584]},"geometry_name":"wkb_geometry","properties":{"id":263,"navn":"Amagerport","loebenummer":138,"web_id":187,"x":726023,"y":6175322}},{"type":"Feature","id":"monumenter.104","geometry":{"type":"Point","coordinates":[12.597091552053511,55.67141144527707]},"geometry_name":"wkb_geometry","properties":{"id":265,"navn":"Martin Andersen Nexø","loebenummer":214,"web_id":255,"x":726188,"y":6175376}},{"type":"Feature","id":"monumenter.105","geometry":{"type":"Point","coordinates":[12.595527090741179,55.673388460316716]},"geometry_name":"wkb_geometry","properties":{"id":267,"navn":"Abegruppe","loebenummer":196,"web_id":240,"x":726078,"y":6175590}},{"type":"Feature","id":"monumenter.106","geometry":{"type":"Point","coordinates":[12.597522342921469,55.67462685884047]},"geometry_name":"wkb_geometry","properties":{"id":268,"navn":"Willy Trosborg","loebenummer":276,"web_id":315,"x":726196,"y":6175735}},{"type":"Feature","id":"monumenter.107","geometry":{"type":"Point","coordinates":[12.581526269172539,55.6627975024812]},"geometry_name":"wkb_geometry","properties":{"id":269,"navn":"6. Artilleriafdelings faldne","loebenummer":241,"web_id":278,"x":725259,"y":6174367}},{"type":"Feature","id":"monumenter.108","geometry":{"type":"Point","coordinates":[12.61016782151884,55.66018858389076]},"geometry_name":"wkb_geometry","properties":{"id":270,"navn":"Sole og galakser i rum","loebenummer":205,"web_id":247,"x":727075,"y":6174170}},{"type":"Feature","id":"monumenter.109","geometry":{"type":"Point","coordinates":[12.61957321961628,55.659482430831126]},"geometry_name":"wkb_geometry","properties":{"id":271,"navn":"Sgraffitogavl","loebenummer":195,"web_id":238,"x":727670,"y":6174123}},{"type":"Feature","id":"monumenter.110","geometry":{"type":"Point","coordinates":[12.61931400084519,55.6551498933164]},"geometry_name":"wkb_geometry","properties":{"id":272,"navn":"Lauritz P. Holmblad","loebenummer":81,"web_id":137,"x":727679,"y":6173640}},{"type":"Feature","id":"monumenter.111","geometry":{"type":"Point","coordinates":[12.620172903865296,55.655307644821235]},"geometry_name":"wkb_geometry","properties":{"id":273,"navn":"Spejldam","loebenummer":289,"web_id":329,"x":727732,"y":6173660}},{"type":"Feature","id":"monumenter.112","geometry":{"type":"Point","coordinates":[12.611482935263028,55.64953155404071]},"geometry_name":"wkb_geometry","properties":{"id":274,"navn":"Kvinde, der kæmmer sig","loebenummer":145,"web_id":192,"x":727219,"y":6172989}},{"type":"Feature","id":"monumenter.113","geometry":{"type":"Point","coordinates":[12.612255566175245,55.64648358643571]},"geometry_name":"wkb_geometry","properties":{"id":275,"navn":"Hundenes hund","loebenummer":245,"web_id":386,"x":727285,"y":6172653}},{"type":"Feature","id":"monumenter.114","geometry":{"type":"Point","coordinates":[12.598489058481501,55.65217133915138]},"geometry_name":"wkb_geometry","properties":{"id":277,"navn":"Fem blomster, fugle, sol","loebenummer":219,"web_id":257,"x":726387,"y":6173241}},{"type":"Feature","id":"monumenter.115","geometry":{"type":"Point","coordinates":[12.596386989605177,55.648414432111544]},"geometry_name":"wkb_geometry","properties":{"id":278,"navn":"Fire gule kiler","loebenummer":288,"web_id":328,"x":726276,"y":6172816}},{"type":"Feature","id":"monumenter.116","geometry":{"type":"Point","coordinates":[12.596580916297524,55.64850433795106]},"geometry_name":"wkb_geometry","properties":{"id":279,"navn":"Stående kalv","loebenummer":225,"web_id":264,"x":726288,"y":6172826}},{"type":"Feature","id":"monumenter.117","geometry":{"type":"Point","coordinates":[12.55898477750142,55.674623703255804]},"geometry_name":"wkb_geometry","properties":{"id":280,"navn":"Abstrakt skulptur","loebenummer":266,"web_id":301,"x":723774,"y":6175609}},{"type":"Feature","id":"monumenter.118","geometry":{"type":"Point","coordinates":[12.58882324134397,55.68225591314001]},"geometry_name":"wkb_geometry","properties":{"id":73,"navn":"Christian X","loebenummer":179,"web_id":224,"x":725606,"y":6176555}},{"type":"Feature","id":"monumenter.119","geometry":{"type":"Point","coordinates":[12.590340339429362,55.681848050369226]},"geometry_name":"wkb_geometry","properties":{"id":74,"navn":"J.P.E. Hartmann","loebenummer":59,"web_id":112,"x":725703,"y":6176514}},{"type":"Feature","id":"monumenter.120","geometry":{"type":"Point","coordinates":[12.597660772588101,55.68936178483468]},"geometry_name":"wkb_geometry","properties":{"id":75,"navn":"Gefionspringvandet","loebenummer":106,"web_id":159,"x":726120,"y":6177374}},{"type":"Feature","id":"monumenter.121","geometry":{"type":"Point","coordinates":[12.598566509160866,55.68952366095875]},"geometry_name":"wkb_geometry","properties":{"id":76,"navn":"Frederik IX","loebenummer":252,"web_id":286,"x":726176,"y":6177395}},{"type":"Feature","id":"monumenter.122","geometry":{"type":"Point","coordinates":[12.596502016678174,55.68874770541824]},"geometry_name":"wkb_geometry","properties":{"id":77,"navn":"Winston Churchill","loebenummer":193,"web_id":236,"x":726051,"y":6177302}},{"type":"Feature","id":"monumenter.123","geometry":{"type":"Point","coordinates":[12.596521975820814,55.68828399282664]},"geometry_name":"wkb_geometry","properties":{"id":78,"navn":"Anders Lassen","loebenummer":272,"web_id":309,"x":726055,"y":6177250}},{"type":"Feature","id":"monumenter.124","geometry":{"type":"Point","coordinates":[12.594425619672357,55.68798201270528]},"geometry_name":"wkb_geometry","properties":{"id":79,"navn":"Finnebørnsmonumentet","loebenummer":320,"web_id":393,"x":725925,"y":6177210}},{"type":"Feature","id":"monumenter.125","geometry":{"type":"Point","coordinates":[12.593578640747076,55.68789037054723]},"geometry_name":"wkb_geometry","properties":{"id":80,"navn":"Valkyrie","loebenummer":44,"web_id":96,"x":725872,"y":6177197}},{"type":"Feature","id":"monumenter.126","geometry":{"type":"Point","coordinates":[12.599254278759732,55.69051452444086]},"geometry_name":"wkb_geometry","properties":{"id":83,"navn":"Ivar Huitfeldt","loebenummer":66,"web_id":120,"x":726213,"y":6177507}},{"type":"Feature","id":"monumenter.127","geometry":{"type":"Point","coordinates":[12.599256453583504,55.692844551966296]},"geometry_name":"wkb_geometry","properties":{"id":84,"navn":"Den lille havfrue","loebenummer":71,"web_id":126,"x":726200,"y":6177766}},{"type":"Feature","id":"monumenter.128","geometry":{"type":"Point","coordinates":[12.599923770493858,55.693510772097916]},"geometry_name":"wkb_geometry","properties":{"id":87,"navn":"Svømmeren ","loebenummer":45,"web_id":97,"x":726238,"y":6177843}},{"type":"Feature","id":"monumenter.129","geometry":{"type":"Point","coordinates":[12.597471057917451,55.69397609497071]},"geometry_name":"wkb_geometry","properties":{"id":88,"navn":"Søfartsmonumentet","loebenummer":72,"web_id":128,"x":726081,"y":6177886}},{"type":"Feature","id":"monumenter.130","geometry":{"type":"Point","coordinates":[12.600245103303676,55.69486385199356]},"geometry_name":"wkb_geometry","properties":{"id":89,"navn":"Mylius Erichsen","loebenummer":47,"web_id":99,"x":726251,"y":6177994}},{"type":"Feature","id":"monumenter.131","geometry":{"type":"Point","coordinates":[12.591287220936108,55.67205414796836]},"geometry_name":"wkb_geometry","properties":{"id":90,"navn":"Grønlandsmonumentet","loebenummer":123,"web_id":174,"x":725819,"y":6175428}},{"type":"Feature","id":"monumenter.132","geometry":{"type":"Point","coordinates":[12.607058620906987,55.68876840598588]},"geometry_name":"wkb_geometry","properties":{"id":93,"navn":"Slaget på Reden","loebenummer":43,"web_id":95,"x":726714,"y":6177339}},{"type":"Feature","id":"monumenter.133","geometry":{"type":"Point","coordinates":[12.588566115960628,55.65551845878753]},"geometry_name":"wkb_geometry","properties":{"id":94,"navn":"Uden  titel","loebenummer":321,"web_id":394,"x":725744,"y":6173580}},{"type":"Feature","id":"monumenter.134","geometry":{"type":"Point","coordinates":[12.577310335148837,55.63918489600538]},"geometry_name":"wkb_geometry","properties":{"id":95,"navn":"Skulptur i tre dele","loebenummer":248,"web_id":282,"x":725130,"y":6171727}},{"type":"Feature","id":"monumenter.135","geometry":{"type":"Point","coordinates":[12.574776494240025,55.61793800521937]},"geometry_name":"wkb_geometry","properties":{"id":97,"navn":"Den store udveksler","loebenummer":322,"web_id":397,"x":725092,"y":6169356}},{"type":"Feature","id":"monumenter.136","geometry":{"type":"Point","coordinates":[12.612282644665994,55.64635263635836]},"geometry_name":"wkb_geometry","properties":{"id":98,"navn":"Borne","loebenummer":323,"web_id":411,"x":727288,"y":6172639}},{"type":"Feature","id":"monumenter.137","geometry":{"type":"Point","coordinates":[12.602170542617971,55.65152032939534]},"geometry_name":"wkb_geometry","properties":{"id":99,"navn":"Sportspige","loebenummer":148,"web_id":197,"x":726622,"y":6173180}},{"type":"Feature","id":"monumenter.138","geometry":{"type":"Point","coordinates":[12.59615847488623,55.64945921364478]},"geometry_name":"wkb_geometry","properties":{"id":100,"navn":"Blå vifteskulptur","loebenummer":231,"web_id":268,"x":726256,"y":6172931}},{"type":"Feature","id":"monumenter.139","geometry":{"type":"Point","coordinates":[12.554972315393318,55.672223702734286]},"geometry_name":"wkb_geometry","properties":{"id":101,"navn":"Heraklesspringvandet","loebenummer":114,"web_id":166,"x":723536,"y":6175329}},{"type":"Feature","id":"monumenter.140","geometry":{"type":"Point","coordinates":[12.538936160712504,55.658568565190684]},"geometry_name":"wkb_geometry","properties":{"id":102,"navn":"Hestebetvinger","loebenummer":7,"web_id":41,"x":722606,"y":6173759}},{"type":"Feature","id":"monumenter.141","geometry":{"type":"Point","coordinates":[12.539069956770943,55.65372719224459]},"geometry_name":"wkb_geometry","properties":{"id":104,"navn":"Anker","loebenummer":238,"web_id":275,"x":722642,"y":6173221}},{"type":"Feature","id":"monumenter.142","geometry":{"type":"Point","coordinates":[12.548247932199017,55.68899584055991]},"geometry_name":"wkb_geometry","properties":{"id":105,"navn":"Artemisspringvandet","loebenummer":104,"web_id":157,"x":723018,"y":6177173}},{"type":"Feature","id":"monumenter.143","geometry":{"type":"Point","coordinates":[12.547815924654818,55.689552727589586]},"geometry_name":"wkb_geometry","properties":{"id":106,"navn":"Moses","loebenummer":52,"web_id":106,"x":722988,"y":6177234}},{"type":"Feature","id":"monumenter.144","geometry":{"type":"Point","coordinates":[12.547137189102587,55.6898126250554]},"geometry_name":"wkb_geometry","properties":{"id":107,"navn":"Laokoon","loebenummer":33,"web_id":21,"x":722943,"y":6177260}},{"type":"Feature","id":"monumenter.145","geometry":{"type":"Point","coordinates":[12.554236956717634,55.690627983389994]},"geometry_name":"wkb_geometry","properties":{"id":110,"navn":"De kantede bærer, de glatte glider","loebenummer":260,"web_id":295,"x":723385,"y":6177374}},{"type":"Feature","id":"monumenter.146","geometry":{"type":"Point","coordinates":[12.560534766393758,55.69079628422569]},"geometry_name":"wkb_geometry","properties":{"id":111,"navn":"Huset, der regner","loebenummer":296,"web_id":335,"x":723779,"y":6177413}},{"type":"Feature","id":"monumenter.147","geometry":{"type":"Point","coordinates":[12.55700840017445,55.68625823698585]},"geometry_name":"wkb_geometry","properties":{"id":112,"navn":"Figuren Blågårds Plads","loebenummer":69,"web_id":123,"x":723584,"y":6176897}},{"type":"Feature","id":"monumenter.148","geometry":{"type":"Point","coordinates":[12.555485308174104,55.69383926601615]},"geometry_name":"wkb_geometry","properties":{"id":113,"navn":"Dansende piger","loebenummer":136,"web_id":185,"x":723445,"y":6177735}},{"type":"Feature","id":"monumenter.149","geometry":{"type":"Point","coordinates":[12.557342541391623,55.695686258519906]},"geometry_name":"wkb_geometry","properties":{"id":114,"navn":"Guldskat","loebenummer":275,"web_id":314,"x":723551,"y":6177946}},{"type":"Feature","id":"monumenter.150","geometry":{"type":"Point","coordinates":[12.555851295193277,55.707632202613226]},"geometry_name":"wkb_geometry","properties":{"id":115,"navn":"Grundtvigs Højskole","loebenummer":166,"web_id":212,"x":723389,"y":6179270}},{"type":"Feature","id":"monumenter.151","geometry":{"type":"Point","coordinates":[12.564396020811618,55.69542720359837]},"geometry_name":"wkb_geometry","properties":{"id":116,"navn":"Moderen med barnet","loebenummer":97,"web_id":151,"x":723995,"y":6177940}},{"type":"Feature","id":"monumenter.152","geometry":{"type":"Point","coordinates":[12.566309700884036,55.69397117503698]},"geometry_name":"wkb_geometry","properties":{"id":118,"navn":"Mod lyset","loebenummer":37,"web_id":22,"x":724124,"y":6177785}},{"type":"Feature","id":"monumenter.153","geometry":{"type":"Point","coordinates":[12.575344336401065,55.69914686284137]},"geometry_name":"wkb_geometry","properties":{"id":120,"navn":"Genforeningsmonumentet","loebenummer":83,"web_id":140,"x":724662,"y":6178389}},{"type":"Feature","id":"monumenter.154","geometry":{"type":"Point","coordinates":[12.57014885618037,55.705292904848704]},"geometry_name":"wkb_geometry","properties":{"id":121,"navn":"En fodboldsspiller","loebenummer":129,"web_id":179,"x":724300,"y":6179056}},{"type":"Feature","id":"monumenter.155","geometry":{"type":"Point","coordinates":[12.576955467947249,55.70860688435365]},"geometry_name":"wkb_geometry","properties":{"id":122,"navn":"Efterår","loebenummer":115,"web_id":167,"x":724709,"y":6179447}},{"type":"Feature","id":"monumenter.156","geometry":{"type":"Point","coordinates":[12.582867745788493,55.708307871742534]},"geometry_name":"wkb_geometry","properties":{"id":123,"navn":"Manana","loebenummer":235,"web_id":272,"x":725082,"y":6179433}},{"type":"Feature","id":"monumenter.157","geometry":{"type":"Point","coordinates":[12.57722745507199,55.704096454049555]},"geometry_name":"wkb_geometry","properties":{"id":124,"navn":"Ved målet","loebenummer":169,"web_id":214,"x":724752,"y":6178946}},{"type":"Feature","id":"monumenter.158","geometry":{"type":"Point","coordinates":[12.585501357767427,55.70340589587045]},"geometry_name":"wkb_geometry","properties":{"id":125,"navn":"Spejlbassin ","loebenummer":308,"web_id":347,"x":725275,"y":6178896}},{"type":"Feature","id":"monumenter.159","geometry":{"type":"Point","coordinates":[12.575706065145079,55.72700809720031]},"geometry_name":"wkb_geometry","properties":{"id":126,"navn":"Bymærke","loebenummer":80,"web_id":136,"x":724525,"y":6181489}},{"type":"Feature","id":"monumenter.160","geometry":{"type":"Point","coordinates":[12.513422797534128,55.649685233171255]},"geometry_name":"wkb_geometry","properties":{"id":127,"navn":"Diskoskasteren","loebenummer":25,"web_id":73,"x":721052,"y":6172690}},{"type":"Feature","id":"monumenter.161","geometry":{"type":"Point","coordinates":[12.481938355229959,55.684775192882235]},"geometry_name":"wkb_geometry","properties":{"id":128,"navn":"Børnenes undervisning i naturen","loebenummer":198,"web_id":242,"x":718876,"y":6176492}},{"type":"Feature","id":"monumenter.162","geometry":{"type":"Point","coordinates":[12.494926127110482,55.693476201215496]},"geometry_name":"wkb_geometry","properties":{"id":129,"navn":"Hemmeligheden","loebenummer":133,"web_id":182,"x":719643,"y":6177501}},{"type":"Feature","id":"monumenter.163","geometry":{"type":"Point","coordinates":[12.51293210365606,55.69670269406854]},"geometry_name":"wkb_geometry","properties":{"id":131,"navn":"Yngling til hest","loebenummer":1,"web_id":385,"x":720756,"y":6177917}},{"type":"Feature","id":"monumenter.164","geometry":{"type":"Point","coordinates":[12.522799735637662,55.698059362214586]},"geometry_name":"wkb_geometry","properties":{"id":132,"navn":"Mand og pige","loebenummer":102,"web_id":155,"x":721368,"y":6178099}},{"type":"Feature","id":"monumenter.165","geometry":{"type":"Point","coordinates":[12.485050043052517,55.719504023871664]},"geometry_name":"wkb_geometry","properties":{"id":136,"navn":"Fodboldspiller","loebenummer":247,"web_id":281,"x":718877,"y":6180364}},{"type":"Feature","id":"monumenter.166","geometry":{"type":"Point","coordinates":[12.532368596013923,55.7122557498084]},"geometry_name":"wkb_geometry","properties":{"id":137,"navn":"Sneugle","loebenummer":202,"web_id":245,"x":721888,"y":6179709}},{"type":"Feature","id":"monumenter.167","geometry":{"type":"Point","coordinates":[12.548502099884058,55.701306845745535]},"geometry_name":"wkb_geometry","properties":{"id":139,"navn":"Buksetrold","loebenummer":178,"web_id":223,"x":722964,"y":6178543}},{"type":"Feature","id":"monumenter.168","geometry":{"type":"Point","coordinates":[12.54015476767551,55.71353420750605]},"geometry_name":"wkb_geometry","properties":{"id":140,"navn":"Lille Gefion","loebenummer":281,"web_id":320,"x":722370,"y":6179876}},{"type":"Feature","id":"monumenter.169","geometry":{"type":"Point","coordinates":[12.541395990424599,55.714727195030065]},"geometry_name":"wkb_geometry","properties":{"id":142,"navn":"Kone på kasse","loebenummer":285,"web_id":325,"x":722441,"y":6180013}},{"type":"Feature","id":"monumenter.170","geometry":{"type":"Point","coordinates":[12.538826614481906,55.714570514575875]},"geometry_name":"wkb_geometry","properties":{"id":143,"navn":"Dynamisk vækst","loebenummer":286,"web_id":326,"x":722281,"y":6179987}},{"type":"Feature","id":"monumenter.171","geometry":{"type":"Point","coordinates":[12.546418312193845,55.71034854621745]},"geometry_name":"wkb_geometry","properties":{"id":144,"navn":"Ung mand med diskos","loebenummer":171,"web_id":216,"x":722781,"y":6179542}},{"type":"Feature","id":"monumenter.172","geometry":{"type":"Point","coordinates":[12.551896816541232,55.71706541540384]},"geometry_name":"wkb_geometry","properties":{"id":145,"navn":"Dreng, der spiller bold","loebenummer":201,"web_id":244,"x":723087,"y":6180306}},{"type":"Feature","id":"monumenter.173","geometry":{"type":"Point","coordinates":[12.599250838611836,55.693274667136194]},"geometry_name":"wkb_geometry","properties":{"id":147,"navn":"Efter badet","loebenummer":46,"web_id":98,"x":726197,"y":6177814}},{"type":"Feature","id":"monumenter.174","geometry":{"type":"Point","coordinates":[12.567385722079058,55.68080305476216]},"geometry_name":"wkb_geometry","properties":{"id":149,"navn":"H.C. Ørsted","loebenummer":12,"web_id":460,"x":724267,"y":6176324}},{"type":"Feature","id":"monumenter.175","geometry":{"type":"Point","coordinates":[12.567716109006462,55.68135347790261]},"geometry_name":"wkb_geometry","properties":{"id":150,"navn":"Silen med bacchusbarn","loebenummer":19,"web_id":63,"x":724285,"y":6176386}},{"type":"Feature","id":"monumenter.176","geometry":{"type":"Point","coordinates":[12.566245718316459,55.68213175794165]},"geometry_name":"wkb_geometry","properties":{"id":153,"navn":"Den døende galler","loebenummer":18,"web_id":55,"x":724188,"y":6176468}},{"type":"Feature","id":"monumenter.177","geometry":{"type":"Point","coordinates":[12.565094547384598,55.67958800720325]},"geometry_name":"wkb_geometry","properties":{"id":154,"navn":"Fløjtespillende satyr","loebenummer":29,"web_id":78,"x":724130,"y":6176181}},{"type":"Feature","id":"monumenter.178","geometry":{"type":"Point","coordinates":[12.567231078100145,55.681367192333425]},"geometry_name":"wkb_geometry","properties":{"id":155,"navn":"Den belvederiske Apollon","loebenummer":20,"web_id":65,"x":724254,"y":6176386}},{"type":"Feature","id":"monumenter.179","geometry":{"type":"Point","coordinates":[12.566829199211227,55.680623558902774]},"geometry_name":"wkb_geometry","properties":{"id":156,"navn":"Sliberen","loebenummer":23,"web_id":70,"x":724233,"y":6176302}},{"type":"Feature","id":"monumenter.180","geometry":{"type":"Point","coordinates":[12.56503143673697,55.680234709165454]},"geometry_name":"wkb_geometry","properties":{"id":157,"navn":"Bertel Thorvaldsen","loebenummer":190,"web_id":234,"x":724122,"y":6176253}},{"type":"Feature","id":"monumenter.181","geometry":{"type":"Point","coordinates":[12.576364312760015,55.68166304245221]},"geometry_name":"wkb_geometry","properties":{"id":164,"navn":"Claudi Rosset","loebenummer":118,"web_id":170,"x":724826,"y":6176448}},{"type":"Feature","id":"monumenter.182","geometry":{"type":"Point","coordinates":[12.576181282996599,55.681331983352706]},"geometry_name":"wkb_geometry","properties":{"id":165,"navn":"Wessel og Ewald","loebenummer":78,"web_id":134,"x":724817,"y":6176411}},{"type":"Feature","id":"monumenter.183","geometry":{"type":"Point","coordinates":[12.571719595452063,55.67915691749452]},"geometry_name":"wkb_geometry","properties":{"id":166,"navn":"Reformationsmonumentet","loebenummer":147,"web_id":196,"x":724549,"y":6176155}},{"type":"Feature","id":"monumenter.184","geometry":{"type":"Point","coordinates":[12.577216690861768,55.67877530028279]},"geometry_name":"wkb_geometry","properties":{"id":167,"navn":"Den ukendte KZ-lejrfanges grav","loebenummer":168,"web_id":363,"x":724896,"y":6176130}},{"type":"Feature","id":"monumenter.185","geometry":{"type":"Point","coordinates":[12.581395818279654,55.67877691397519]},"geometry_name":"wkb_geometry","properties":{"id":168,"navn":"Kildeindfatning","loebenummer":107,"web_id":160,"x":725159,"y":6176144}},{"type":"Feature","id":"monumenter.186","geometry":{"type":"Point","coordinates":[12.582560967181765,55.68078058933044]},"geometry_name":"wkb_geometry","properties":{"id":169,"navn":"Skadebrønd","loebenummer":246,"web_id":280,"x":725221,"y":6176370}},{"type":"Feature","id":"monumenter.187","geometry":{"type":"Point","coordinates":[12.581837593585828,55.67874108773891]},"geometry_name":"wkb_geometry","properties":{"id":170,"navn":"Hans Egede og Giertrud Rask","loebenummer":77,"web_id":133,"x":725187,"y":6176141}},{"type":"Feature","id":"monumenter.188","geometry":{"type":"Point","coordinates":[12.581911835758328,55.67860043626816]},"geometry_name":"wkb_geometry","properties":{"id":171,"navn":"Svend Aage Tauscher","loebenummer":273,"web_id":310,"x":725192,"y":6176126}},{"type":"Feature","id":"monumenter.189","geometry":{"type":"Point","coordinates":[12.581724403108236,55.67848307741393]},"geometry_name":"wkb_geometry","properties":{"id":173,"navn":"Tre former","loebenummer":271,"web_id":308,"x":725181,"y":6176112}},{"type":"Feature","id":"monumenter.190","geometry":{"type":"Point","coordinates":[12.580242972703136,55.677571734553005]},"geometry_name":"wkb_geometry","properties":{"id":174,"navn":"Agnete og havmanden","loebenummer":301,"web_id":340,"x":725094,"y":6176006}},{"type":"Feature","id":"monumenter.191","geometry":{"type":"Point","coordinates":[12.573471178402823,55.67448267474463]},"geometry_name":"wkb_geometry","properties":{"id":175,"navn":"Stormen på København","loebenummer":4,"web_id":34,"x":724686,"y":6175640}},{"type":"Feature","id":"monumenter.192","geometry":{"type":"Point","coordinates":[12.586164592530622,55.67968463324796]},"geometry_name":"wkb_geometry","properties":{"id":177,"navn":"Adam Oehlenschläger","loebenummer":60,"web_id":113,"x":725453,"y":6176260}},{"type":"Feature","id":"monumenter.193","geometry":{"type":"Point","coordinates":[12.5693738778304,55.675733106327364]},"geometry_name":"wkb_geometry","properties":{"id":178,"navn":"Bronzekumme","loebenummer":56,"web_id":109,"x":724421,"y":6175766}},{"type":"Feature","id":"monumenter.194","geometry":{"type":"Point","coordinates":[12.57047004580058,55.675936349481866]},"geometry_name":"wkb_geometry","properties":{"id":179,"navn":"Lurblæserne","loebenummer":57,"web_id":110,"x":724489,"y":6175792}},{"type":"Feature","id":"monumenter.195","geometry":{"type":"Point","coordinates":[12.560778465504757,55.673233693164555]},"geometry_name":"wkb_geometry","properties":{"id":281,"navn":"Vesterbros blomst","loebenummer":270,"web_id":305,"x":723895,"y":6175460}},{"type":"Feature","id":"monumenter.196","geometry":{"type":"Point","coordinates":[12.553794569725778,55.671048746047326]},"geometry_name":"wkb_geometry","properties":{"id":282,"navn":"Ung pige ","loebenummer":182,"web_id":227,"x":723469,"y":6175195}},{"type":"Feature","id":"monumenter.197","geometry":{"type":"Point","coordinates":[12.55916321830512,55.667919836296726]},"geometry_name":"wkb_geometry","properties":{"id":284,"navn":"Tyr","loebenummer":163,"web_id":209,"x":723824,"y":6174864}},{"type":"Feature","id":"monumenter.198","geometry":{"type":"Point","coordinates":[12.558057629257467,55.66534721238992]},"geometry_name":"wkb_geometry","properties":{"id":285,"navn":"Fire steler","loebenummer":302,"web_id":341,"x":723769,"y":6174575}},{"type":"Feature","id":"monumenter.199","geometry":{"type":"Point","coordinates":[12.560895774415128,55.66339524925715]},"geometry_name":"wkb_geometry","properties":{"id":286,"navn":"Fire steler","loebenummer":null,"web_id":null,"x":723959,"y":6174367}},{"type":"Feature","id":"monumenter.200","geometry":{"type":"Point","coordinates":[12.561181339544424,55.663537558675934]},"geometry_name":"wkb_geometry","properties":{"id":287,"navn":"Fire steler","loebenummer":302,"web_id":341,"x":723976,"y":6174383}},{"type":"Feature","id":"monumenter.201","geometry":{"type":"Point","coordinates":[12.546478523523637,55.6672088029452]},"geometry_name":"wkb_geometry","properties":{"id":290,"navn":"Drengebarn med fiasco","loebenummer":99,"web_id":152,"x":723031,"y":6174744}},{"type":"Feature","id":"monumenter.202","geometry":{"type":"Point","coordinates":[12.543454536412032,55.66683921531587]},"geometry_name":"wkb_geometry","properties":{"id":291,"navn":"Venus med æblet","loebenummer":53,"web_id":107,"x":722843,"y":6174693}},{"type":"Feature","id":"monumenter.203","geometry":{"type":"Point","coordinates":[12.54080778215627,55.66659602241175]},"geometry_name":"wkb_geometry","properties":{"id":292,"navn":"Ungdom","loebenummer":162,"web_id":208,"x":722678,"y":6174658}},{"type":"Feature","id":"monumenter.204","geometry":{"type":"Point","coordinates":[12.541063154614768,55.66725722370524]},"geometry_name":"wkb_geometry","properties":{"id":293,"navn":"Apollon og de ni muser","loebenummer":332,"web_id":425,"x":722690,"y":6174732}},{"type":"Feature","id":"monumenter.205","geometry":{"type":"Point","coordinates":[12.533225992929145,55.662298182686854]},"geometry_name":"wkb_geometry","properties":{"id":294,"navn":"Wienerbørnenes ankomst","loebenummer":215,"web_id":256,"x":722225,"y":6174156}},{"type":"Feature","id":"monumenter.206","geometry":{"type":"Point","coordinates":[12.533176059356299,55.662672169884594]},"geometry_name":"wkb_geometry","properties":{"id":295,"navn":"Unge mennesker","loebenummer":183,"web_id":228,"x":722220,"y":6174197}},{"type":"Feature","id":"monumenter.207","geometry":{"type":"Point","coordinates":[12.531968122627024,55.66160709180974]},"geometry_name":"wkb_geometry","properties":{"id":296,"navn":"Kvindefigur","loebenummer":84,"web_id":402,"x":722150,"y":6174075}},{"type":"Feature","id":"monumenter.208","geometry":{"type":"Point","coordinates":[12.531076302065863,55.661451624698465]},"geometry_name":"wkb_geometry","properties":{"id":297,"navn":"En falden","loebenummer":150,"web_id":409,"x":722095,"y":6174055}},{"type":"Feature","id":"monumenter.209","geometry":{"type":"Point","coordinates":[12.528384567107338,55.66114714600124]},"geometry_name":"wkb_geometry","properties":{"id":298,"navn":"Fresko","loebenummer":209,"web_id":410,"x":721928,"y":6174012}},{"type":"Feature","id":"monumenter.210","geometry":{"type":"Point","coordinates":[12.528304161686064,55.66136729714642]},"geometry_name":"wkb_geometry","properties":{"id":299,"navn":"Begravelse og opstandelse","loebenummer":188,"web_id":408,"x":721921,"y":6174036}},{"type":"Feature","id":"monumenter.211","geometry":{"type":"Point","coordinates":[12.529393447942487,55.66129741542954]},"geometry_name":"wkb_geometry","properties":{"id":300,"navn":"Niels R. Finsens grav","loebenummer":126,"web_id":null,"x":721990,"y":6174032}},{"type":"Feature","id":"monumenter.212","geometry":{"type":"Point","coordinates":[12.533753461236042,55.648968534369274]},"geometry_name":"wkb_geometry","properties":{"id":301,"navn":"Musikken","loebenummer":95,"web_id":149,"x":722334,"y":6172675}},{"type":"Feature","id":"monumenter.213","geometry":{"type":"Point","coordinates":[12.534152484098438,55.64871458247092]},"geometry_name":"wkb_geometry","properties":{"id":302,"navn":"Springvand","loebenummer":297,"web_id":336,"x":722361,"y":6172648}},{"type":"Feature","id":"monumenter.214","geometry":{"type":"Point","coordinates":[12.554764287542541,55.68257761833657]},"geometry_name":"wkb_geometry","properties":{"id":304,"navn":"Herman Trier","loebenummer":119,"web_id":171,"x":723464,"y":6176480}},{"type":"Feature","id":"monumenter.215","geometry":{"type":"Point","coordinates":[12.556059861538115,55.6834722896372]},"geometry_name":"wkb_geometry","properties":{"id":305,"navn":"Druknesten","loebenummer":287,"web_id":327,"x":723540,"y":6176584}},{"type":"Feature","id":"monumenter.216","geometry":{"type":"Point","coordinates":[12.544424347648947,55.690226869468496]},"geometry_name":"wkb_geometry","properties":{"id":307,"navn":"Peter med hane","loebenummer":280,"web_id":319,"x":722771,"y":6177298}},{"type":"Feature","id":"monumenter.217","geometry":{"type":"Point","coordinates":[12.532146431862039,55.702166510087785]},"geometry_name":"wkb_geometry","properties":{"id":308,"navn":"Dreng med ged","loebenummer":131,"web_id":181,"x":721932,"y":6178586}},{"type":"Feature","id":"monumenter.218","geometry":{"type":"Point","coordinates":[12.539721153606552,55.693158437259626]},"geometry_name":"wkb_geometry","properties":{"id":310,"navn":"Udsmykning af Rungsted Plads","loebenummer":312,"web_id":351,"x":722458,"y":6177609}},{"type":"Feature","id":"monumenter.219","geometry":{"type":"Point","coordinates":[12.55191637224427,55.69657040728749]},"geometry_name":"wkb_geometry","properties":{"id":311,"navn":"Vågnende pige","loebenummer":117,"web_id":169,"x":723205,"y":6178027}},{"type":"Feature","id":"monumenter.220","geometry":{"type":"Point","coordinates":[12.558172145656856,55.69488100663633]},"geometry_name":"wkb_geometry","properties":{"id":312,"navn":"Pietá","loebenummer":96,"web_id":150,"x":723608,"y":6177859}},{"type":"Feature","id":"monumenter.221","geometry":{"type":"Point","coordinates":[12.557359370582164,55.693867815932364]},"geometry_name":"wkb_geometry","properties":{"id":313,"navn":"Afrodite","loebenummer":125,"web_id":176,"x":723562,"y":6177744}},{"type":"Feature","id":"monumenter.222","geometry":{"type":"Point","coordinates":[12.557508272744155,55.7086488216622]},"geometry_name":"wkb_geometry","properties":{"id":314,"navn":"Larve","loebenummer":295,"web_id":334,"x":723487,"y":6179389}},{"type":"Feature","id":"monumenter.223","geometry":{"type":"Point","coordinates":[12.585308243197046,55.71497259509473]},"geometry_name":"wkb_geometry","properties":{"id":315,"navn":"Stående kvinde","loebenummer":184,"web_id":229,"x":725197,"y":6180182}},{"type":"Feature","id":"monumenter.224","geometry":{"type":"Point","coordinates":[12.567009663977752,55.71512212002042]},"geometry_name":"wkb_geometry","properties":{"id":316,"navn":"Fugl med unge","loebenummer":265,"web_id":300,"x":724047,"y":6180139}},{"type":"Feature","id":"monumenter.225","geometry":{"type":"Point","coordinates":[12.560771755484438,55.71278467483449]},"geometry_name":"wkb_geometry","properties":{"id":317,"navn":"Hans Knudsen","loebenummer":310,"web_id":348,"x":723669,"y":6179859}},{"type":"Feature","id":"monumenter.226","geometry":{"type":"Point","coordinates":[12.573230728899427,55.70727397324552]},"geometry_name":"wkb_geometry","properties":{"id":318,"navn":"Ove Rode","loebenummer":127,"web_id":177,"x":724482,"y":6179286}},{"type":"Feature","id":"monumenter.227","geometry":{"type":"Point","coordinates":[12.592824946356872,55.66818318446087]},"geometry_name":"wkb_geometry","properties":{"id":320,"navn":"Ulrich Birch","loebenummer":39,"web_id":23,"x":725938,"y":6175003}},{"type":"Feature","id":"monumenter.228","geometry":{"type":"Point","coordinates":[12.565141280509229,55.69998656091702]},"geometry_name":"wkb_geometry","properties":{"id":322,"navn":"Ole Syversen","loebenummer":38,"web_id":90,"x":724016,"y":6178450}},{"type":"Feature","id":"monumenter.229","geometry":{"type":"Point","coordinates":[12.565487572637213,55.7004558844609]},"geometry_name":"wkb_geometry","properties":{"id":323,"navn":"Fredrik og Matilde Bayer","loebenummer":40,"web_id":91,"x":724035,"y":6178503}},{"type":"Feature","id":"monumenter.230","geometry":{"type":"Point","coordinates":[12.565274418373022,55.70085913117759]},"geometry_name":"wkb_geometry","properties":{"id":324,"navn":"F.J. Borgbjerg","loebenummer":128,"web_id":178,"x":724020,"y":6178547}},{"type":"Feature","id":"monumenter.231","geometry":{"type":"Point","coordinates":[12.566294930755609,55.70130240304607]},"geometry_name":"wkb_geometry","properties":{"id":325,"navn":"Skulptur i tre dele","loebenummer":249,"web_id":283,"x":724081,"y":6178600}},{"type":"Feature","id":"monumenter.232","geometry":{"type":"Point","coordinates":[12.567414545280126,55.699963674669775]},"geometry_name":"wkb_geometry","properties":{"id":326,"navn":"Talerstol","loebenummer":290,"web_id":330,"x":724159,"y":6178455}},{"type":"Feature","id":"monumenter.233","geometry":{"type":"Point","coordinates":[12.563568108427612,55.6964055120839]},"geometry_name":"wkb_geometry","properties":{"id":327,"navn":"H.W. Meyer","loebenummer":41,"web_id":93,"x":723938,"y":6178046}},{"type":"Feature","id":"monumenter.234","geometry":{"type":"Point","coordinates":[12.568567172365126,55.69666794771857]},"geometry_name":"wkb_geometry","properties":{"id":328,"navn":"Valdemar Bie","loebenummer":146,"web_id":195,"x":724250,"y":6178092}},{"type":"Feature","id":"monumenter.235","geometry":{"type":"Point","coordinates":[12.571874190755194,55.706176256675484]},"geometry_name":"wkb_geometry","properties":{"id":329,"navn":"To løver","loebenummer":30,"web_id":82,"x":724404,"y":6179160}},{"type":"Feature","id":"monumenter.236","geometry":{"type":"Point","coordinates":[12.576560018212941,55.70479527932849]},"geometry_name":"wkb_geometry","properties":{"id":330,"navn":"Kvinde, mand","loebenummer":170,"web_id":215,"x":724706,"y":6179022}},{"type":"Feature","id":"monumenter.237","geometry":{"type":"Point","coordinates":[12.577112431243759,55.704531763714975]},"geometry_name":"wkb_geometry","properties":{"id":331,"navn":"Kvinde, mand","loebenummer":170,"web_id":215,"x":724742,"y":6178994}},{"type":"Feature","id":"monumenter.238","geometry":{"type":"Point","coordinates":[12.577075813430337,55.704091985572006]},"geometry_name":"wkb_geometry","properties":{"id":332,"navn":"To sportsscener","loebenummer":294,"web_id":333,"x":724742,"y":6178945}},{"type":"Feature","id":"monumenter.239","geometry":{"type":"Point","coordinates":[12.588924557660057,55.69798493869138]},"geometry_name":"wkb_geometry","properties":{"id":334,"navn":"J.F. Classen","loebenummer":143,"web_id":191,"x":725521,"y":6178304}},{"type":"Feature","id":"monumenter.240","geometry":{"type":"Point","coordinates":[12.588789362291342,55.6974544187543]},"geometry_name":"wkb_geometry","properties":{"id":336,"navn":"Kongens Livjægere","loebenummer":161,"web_id":207,"x":725516,"y":6178245}},{"type":"Feature","id":"monumenter.241","geometry":{"type":"Point","coordinates":[12.587970267439283,55.695927687323]},"geometry_name":"wkb_geometry","properties":{"id":337,"navn":"En blind pige","loebenummer":299,"web_id":338,"x":725473,"y":6178072}},{"type":"Feature","id":"monumenter.242","geometry":{"type":"Point","coordinates":[12.588085658327675,55.69587888874729]},"geometry_name":"wkb_geometry","properties":{"id":338,"navn":"En blind dreng","loebenummer":300,"web_id":339,"x":725481,"y":6178067}},{"type":"Feature","id":"monumenter.243","geometry":{"type":"Point","coordinates":[12.595819544193475,55.699284653057205]},"geometry_name":"wkb_geometry","properties":{"id":339,"navn":"Kristina","loebenummer":307,"web_id":346,"x":725947,"y":6178471}},{"type":"Feature","id":"monumenter.244","geometry":{"type":"Point","coordinates":[12.523171818048338,55.666245917713105]},"geometry_name":"wkb_geometry","properties":{"id":340,"navn":"Og dagen rinder","loebenummer":124,"web_id":175,"x":721571,"y":6174562}},{"type":"Feature","id":"monumenter.245","geometry":{"type":"Point","coordinates":[12.516195606780721,55.66259011567019]},"geometry_name":"wkb_geometry","properties":{"id":341,"navn":"Kains efterkommere","loebenummer":3,"web_id":32,"x":721153,"y":6174134}},{"type":"Feature","id":"monumenter.246","geometry":{"type":"Point","coordinates":[12.566350618903826,55.68073635602554]},"geometry_name":"wkb_geometry","properties":{"id":342,"navn":"Hvilende Hermes","loebenummer":27,"web_id":75,"x":724202,"y":6176313}},{"type":"Feature","id":"monumenter.247","geometry":{"type":"Point","coordinates":[12.57142305983805,55.68385334243189]},"geometry_name":"wkb_geometry","properties":{"id":343,"navn":"Nulpunkt Nørreport","loebenummer":76,"web_id":132,"x":724503,"y":6176676}},{"type":"Feature","id":"monumenter.248","geometry":{"type":"Point","coordinates":[12.517222249913644,55.66215173619007]},"geometry_name":"wkb_geometry","properties":{"id":344,"navn":"Pladsudsmykning","loebenummer":257,"web_id":292,"x":721220,"y":6174088}},{"type":"Feature","id":"monumenter.249","geometry":{"type":"Point","coordinates":[12.507576841262953,55.66182289566615]},"geometry_name":"wkb_geometry","properties":{"id":345,"navn":"Keramisk vægudsmykning","loebenummer":211,"web_id":251,"x":720616,"y":6174021}},{"type":"Feature","id":"monumenter.250","geometry":{"type":"Point","coordinates":[12.517711228022536,55.66055468273101]},"geometry_name":"wkb_geometry","properties":{"id":346,"navn":"Vandbærerske","loebenummer":203,"web_id":435,"x":721260,"y":6173912}},{"type":"Feature","id":"monumenter.251","geometry":{"type":"Point","coordinates":[12.494457211514533,55.66968173895032]},"geometry_name":"wkb_geometry","properties":{"id":347,"navn":"Løvebrønd","loebenummer":187,"web_id":232,"x":719747,"y":6174853}},{"type":"Feature","id":"monumenter.252","geometry":{"type":"Point","coordinates":[12.494554834281548,55.66974010614787]},"geometry_name":"wkb_geometry","properties":{"id":348,"navn":"Livets vilkår","loebenummer":186,"web_id":58,"x":719753,"y":6174860}},{"type":"Feature","id":"monumenter.253","geometry":{"type":"Point","coordinates":[12.576512599024058,55.69827219584086]},"geometry_name":"wkb_geometry","properties":{"id":349,"navn":"Siddende puddel","loebenummer":232,"web_id":269,"x":724740,"y":6178296}},{"type":"Feature","id":"monumenter.254","geometry":{"type":"Point","coordinates":[12.52261864290564,55.645414189681546]},"geometry_name":"wkb_geometry","properties":{"id":350,"navn":"Skurestribesten","loebenummer":189,"web_id":233,"x":721654,"y":6172244}},{"type":"Feature","id":"monumenter.255","geometry":{"type":"Point","coordinates":[12.520112800965178,55.64115923853999]},"geometry_name":"wkb_geometry","properties":{"id":351,"navn":"Havtaske","loebenummer":223,"web_id":262,"x":721521,"y":6171763}},{"type":"Feature","id":"monumenter.256","geometry":{"type":"Point","coordinates":[12.48970992176117,55.72043708068877]},"geometry_name":"wkb_geometry","properties":{"id":352,"navn":"Kalkun","loebenummer":243,"web_id":279,"x":719164,"y":6180483}},{"type":"Feature","id":"monumenter.257","geometry":{"type":"Point","coordinates":[12.477390356103376,55.714138329522044]},"geometry_name":"wkb_geometry","properties":{"id":353,"navn":"To katte, der netter hinanden","loebenummer":206,"web_id":248,"x":718426,"y":6179744}},{"type":"Feature","id":"monumenter.258","geometry":{"type":"Point","coordinates":[12.555859205549634,55.69086404948408]},"geometry_name":"wkb_geometry","properties":{"id":354,"navn":"Granskende pige","loebenummer":100,"web_id":153,"x":723485,"y":6177405}},{"type":"Feature","id":"monumenter.259","geometry":{"type":"Point","coordinates":[12.508601618795606,55.707413520792166]},"geometry_name":"wkb_geometry","properties":{"id":355,"navn":"Moder med børn","loebenummer":135,"web_id":184,"x":720423,"y":6179094}},{"type":"Feature","id":"monumenter.260","geometry":{"type":"Point","coordinates":[12.507797563696311,55.70965289371261]},"geometry_name":"wkb_geometry","properties":{"id":359,"navn":"Høstmand","loebenummer":167,"web_id":213,"x":720360,"y":6179341}},{"type":"Feature","id":"monumenter.261","geometry":{"type":"Point","coordinates":[12.570685371561622,55.67465685657701]},"geometry_name":"wkb_geometry","properties":{"id":361,"navn":"Politibetjent","loebenummer":110,"web_id":163,"x":724510,"y":6175651}},{"type":"Feature","id":"monumenter.262","geometry":{"type":"Point","coordinates":[12.571432020543668,55.675126366104905]},"geometry_name":"wkb_geometry","properties":{"id":362,"navn":"Brandmand","loebenummer":110,"web_id":163,"x":724554,"y":6175705}},{"type":"Feature","id":"monumenter.263","geometry":{"type":"Point","coordinates":[12.508199533473821,55.70438010679368]},"geometry_name":"wkb_geometry","properties":{"id":363,"navn":"Glasmosaik","loebenummer":208,"web_id":249,"x":720415,"y":6178756}},{"type":"Feature","id":"monumenter.264","geometry":{"type":"Point","coordinates":[12.517616159426762,55.69981813111095]},"geometry_name":"wkb_geometry","properties":{"id":364,"navn":"Danmark under besættelsen","loebenummer":165,"web_id":211,"x":721032,"y":6178278}},{"type":"Feature","id":"monumenter.265","geometry":{"type":"Point","coordinates":[12.5232002191785,55.69779176171413]},"geometry_name":"wkb_geometry","properties":{"id":365,"navn":"Gandhi","loebenummer":261,"web_id":296,"x":721394,"y":6178071}},{"type":"Feature","id":"monumenter.266","geometry":{"type":"Point","coordinates":[12.513669762450835,55.66599349651582]},"geometry_name":"wkb_geometry","properties":{"id":590,"navn":"Kone med hundene","loebenummer":363,"web_id":474,"x":720975,"y":6174504}},{"type":"Feature","id":"monumenter.267","geometry":{"type":"Point","coordinates":[12.513216850630522,55.69306174280615]},"geometry_name":"wkb_geometry","properties":{"id":369,"navn":"Lille pige med krukke","loebenummer":103,"web_id":156,"x":720794,"y":6177513}},{"type":"Feature","id":"monumenter.268","geometry":{"type":"Point","coordinates":[12.506121610230588,55.69618834353251]},"geometry_name":"wkb_geometry","properties":{"id":370,"navn":"Latent energi","loebenummer":204,"web_id":246,"x":720331,"y":6177838}},{"type":"Feature","id":"monumenter.269","geometry":{"type":"Point","coordinates":[12.4835225460908,55.69635019317269]},"geometry_name":"wkb_geometry","properties":{"id":371,"navn":"Skulptur","loebenummer":224,"web_id":263,"x":718910,"y":6177785}},{"type":"Feature","id":"monumenter.270","geometry":{"type":"Point","coordinates":[12.482164202030905,55.68677792925705]},"geometry_name":"wkb_geometry","properties":{"id":372,"navn":"Mor Groa","loebenummer":199,"web_id":243,"x":718879,"y":6176716}},{"type":"Feature","id":"monumenter.271","geometry":{"type":"Point","coordinates":[12.546754501994023,55.72229697170211]},"geometry_name":"wkb_geometry","properties":{"id":373,"navn":"Gjerrøds datter","loebenummer":139,"web_id":188,"x":722734,"y":6180872}},{"type":"Feature","id":"monumenter.272","geometry":{"type":"Point","coordinates":[12.524515935290111,55.716973982884205]},"geometry_name":"wkb_geometry","properties":{"id":374,"navn":"Nøgen ung mand","loebenummer":207,"web_id":406,"x":721369,"y":6180208}},{"type":"Feature","id":"monumenter.273","geometry":{"type":"Point","coordinates":[12.529829753208928,55.71575322464387]},"geometry_name":"wkb_geometry","properties":{"id":375,"navn":"Fra døden til opstandelsen","loebenummer":151,"web_id":405,"x":721709,"y":6180090}},{"type":"Feature","id":"monumenter.274","geometry":{"type":"Point","coordinates":[12.522741164927162,55.71184539718483]},"geometry_name":"wkb_geometry","properties":{"id":376,"navn":"Afskedsscene","loebenummer":158,"web_id":404,"x":721286,"y":6179632}},{"type":"Feature","id":"monumenter.275","geometry":{"type":"Point","coordinates":[12.5384046470213,55.71073285613536]},"geometry_name":"wkb_geometry","properties":{"id":377,"navn":"Fabeldyr","loebenummer":194,"web_id":237,"x":722276,"y":6179559}},{"type":"Feature","id":"monumenter.276","geometry":{"type":"Point","coordinates":[12.544190289746883,55.70873280965887]},"geometry_name":"wkb_geometry","properties":{"id":378,"navn":"Pige, der reder sit hår","loebenummer":172,"web_id":217,"x":722651,"y":6179355}},{"type":"Feature","id":"monumenter.277","geometry":{"type":"Point","coordinates":[12.54251726302056,55.71168725688021]},"geometry_name":"wkb_geometry","properties":{"id":379,"navn":"Den humane sygepleje","loebenummer":141,"web_id":189,"x":722529,"y":6179678}},{"type":"Feature","id":"monumenter.278","geometry":{"type":"Point","coordinates":[12.54072250409376,55.71288876099281]},"geometry_name":"wkb_geometry","properties":{"id":380,"navn":"Kærligheden mod de syge","loebenummer":152,"web_id":199,"x":722409,"y":6179806}},{"type":"Feature","id":"monumenter.279","geometry":{"type":"Point","coordinates":[12.5410839588101,55.713031926898005]},"geometry_name":"wkb_geometry","properties":{"id":381,"navn":"Glæden ved genvundet helbred","loebenummer":152,"web_id":199,"x":722431,"y":6179823}},{"type":"Feature","id":"monumenter.280","geometry":{"type":"Point","coordinates":[12.541570231798838,55.71435261202499]},"geometry_name":"wkb_geometry","properties":{"id":382,"navn":"Tukak maskespil","loebenummer":284,"web_id":324,"x":722454,"y":6179972}},{"type":"Feature","id":"monumenter.281","geometry":{"type":"Point","coordinates":[12.539861926646287,55.71377415903867]},"geometry_name":"wkb_geometry","properties":{"id":383,"navn":"Borgmester Jensen","loebenummer":157,"web_id":204,"x":722350,"y":6179902}},{"type":"Feature","id":"monumenter.282","geometry":{"type":"Point","coordinates":[12.541326453002181,55.71238830451944]},"geometry_name":"wkb_geometry","properties":{"id":385,"navn":"Skulptur III","loebenummer":282,"web_id":321,"x":722450,"y":6179752}},{"type":"Feature","id":"monumenter.283","geometry":{"type":"Point","coordinates":[12.541688301625271,55.71253406848316]},"geometry_name":"wkb_geometry","properties":{"id":386,"navn":"Blomsterkumme","loebenummer":283,"web_id":322,"x":722472,"y":6179770}},{"type":"Feature","id":"monumenter.284","geometry":{"type":"Point","coordinates":[12.537744510782808,55.701400709324716]},"geometry_name":"wkb_geometry","properties":{"id":387,"navn":"Michael Christian Lyngsie","loebenummer":278,"web_id":317,"x":722287,"y":6178519}},{"type":"Feature","id":"monumenter.285","geometry":{"type":"Point","coordinates":[12.537611280814634,55.70134181896208]},"geometry_name":"wkb_geometry","properties":{"id":388,"navn":"Stort blad","loebenummer":267,"web_id":302,"x":722279,"y":6178512}},{"type":"Feature","id":"monumenter.286","geometry":{"type":"Point","coordinates":[12.572909029243363,55.677617172820625]},"geometry_name":"wkb_geometry","properties":{"id":389,"navn":"Københavns tredje og fjerde rådhus","loebenummer":174,"web_id":219,"x":724632,"y":6175987}},{"type":"Feature","id":"monumenter.287","geometry":{"type":"Point","coordinates":[12.573280366275009,55.67729018624149]},"geometry_name":"wkb_geometry","properties":{"id":390,"navn":"Byens kag","loebenummer":175,"web_id":220,"x":724658,"y":6175952}},{"type":"Feature","id":"monumenter.288","geometry":{"type":"Point","coordinates":[12.577553142224085,55.68192883555961]},"geometry_name":"wkb_geometry","properties":{"id":392,"navn":"Springvand","loebenummer":237,"web_id":274,"x":724899,"y":6176482}},{"type":"Feature","id":"monumenter.289","geometry":{"type":"Point","coordinates":[12.582646785554116,55.67835618098883]},"geometry_name":"wkb_geometry","properties":{"id":393,"navn":"August Bournonville ","loebenummer":244,"web_id":429,"x":725240,"y":6176101}},{"type":"Feature","id":"monumenter.290","geometry":{"type":"Point","coordinates":[12.596104449080745,55.67305432648587]},"geometry_name":"wkb_geometry","properties":{"id":394,"navn":"Christian IV","loebenummer":309,"web_id":396,"x":726116,"y":6175555}},{"type":"Feature","id":"monumenter.291","geometry":{"type":"Point","coordinates":[12.57722363554608,55.67629855373227]},"geometry_name":"wkb_geometry","properties":{"id":395,"navn":"Spejlbassin","loebenummer":311,"web_id":349,"x":724911,"y":6175855}},{"type":"Feature","id":"monumenter.292","geometry":{"type":"Point","coordinates":[12.569463600444266,55.697652111826784]},"geometry_name":"wkb_geometry","properties":{"id":397,"navn":"Sigurd Fafnersbane og slange","loebenummer":314,"web_id":353,"x":724301,"y":6178204}},{"type":"Feature","id":"monumenter.293","geometry":{"type":"Point","coordinates":[12.573582559390497,55.69991138994691]},"geometry_name":"wkb_geometry","properties":{"id":398,"navn":"Seks sanseskulpturer","loebenummer":315,"web_id":355,"x":724547,"y":6178469}},{"type":"Feature","id":"monumenter.294","geometry":{"type":"Point","coordinates":[12.613587796798575,55.66182478081894]},"geometry_name":"wkb_geometry","properties":{"id":399,"navn":"Dagdrømmeren","loebenummer":316,"web_id":356,"x":727280,"y":6174363}},{"type":"Feature","id":"monumenter.295","geometry":{"type":"Point","coordinates":[12.541848322777616,55.69950253525087]},"geometry_name":"wkb_geometry","properties":{"id":400,"navn":"Salvador Allende","loebenummer":318,"web_id":390,"x":722556,"y":6178321}},{"type":"Feature","id":"monumenter.296","geometry":{"type":"Point","coordinates":[12.612918802755974,55.651373090128786]},"geometry_name":"wkb_geometry","properties":{"id":401,"navn":"Østen for solen og vesten for månen","loebenummer":319,"web_id":389,"x":727299,"y":6173199}},{"type":"Feature","id":"monumenter.297","geometry":{"type":"Point","coordinates":[12.571837414718194,55.706406327127674]},"geometry_name":"wkb_geometry","properties":{"id":402,"navn":"Granitkugle","loebenummer":324,"web_id":414,"x":724400,"y":6179185}},{"type":"Feature","id":"monumenter.298","geometry":{"type":"Point","coordinates":[12.613366918805879,55.66477179819126]},"geometry_name":"wkb_geometry","properties":{"id":403,"navn":"Liggende kalv","loebenummer":325,"web_id":416,"x":727249,"y":6174690}},{"type":"Feature","id":"monumenter.299","geometry":{"type":"Point","coordinates":[12.476095092192992,55.71565864590897]},"geometry_name":"wkb_geometry","properties":{"id":404,"navn":"Dreng","loebenummer":326,"web_id":417,"x":718336,"y":6179909}},{"type":"Feature","id":"monumenter.300","geometry":{"type":"Point","coordinates":[12.50845694092031,55.70454912376182]},"geometry_name":"wkb_geometry","properties":{"id":405,"navn":"Granitskulptur","loebenummer":327,"web_id":418,"x":720430,"y":6178775}},{"type":"Feature","id":"monumenter.301","geometry":{"type":"Point","coordinates":[12.512971737115347,55.66525479613119]},"geometry_name":"wkb_geometry","properties":{"id":406,"navn":"Gøgeunge","loebenummer":328,"web_id":419,"x":720935,"y":6174420}},{"type":"Feature","id":"monumenter.302","geometry":{"type":"Point","coordinates":[12.525244203972209,55.65627843665996]},"geometry_name":"wkb_geometry","properties":{"id":408,"navn":"Borgermusikken","loebenummer":329,"web_id":420,"x":721758,"y":6173461}},{"type":"Feature","id":"monumenter.303","geometry":{"type":"Point","coordinates":[12.579319298163393,55.66962899445879]},"geometry_name":"wkb_geometry","properties":{"id":409,"navn":"Arken","loebenummer":330,"web_id":422,"x":725081,"y":6175120}},{"type":"Feature","id":"monumenter.304","geometry":{"type":"Point","coordinates":[12.576739045707807,55.66740279418391]},"geometry_name":"wkb_geometry","properties":{"id":410,"navn":"Platons hule","loebenummer":331,"web_id":424,"x":724932,"y":6174864}},{"type":"Feature","id":"monumenter.305","geometry":{"type":"Point","coordinates":[12.557281151383275,55.695534183364956]},"geometry_name":"wkb_geometry","properties":{"id":411,"navn":"Granitskulptur","loebenummer":333,"web_id":426,"x":723548,"y":6177929}},{"type":"Feature","id":"monumenter.306","geometry":{"type":"Point","coordinates":[12.550165254149915,55.69929769755544]},"geometry_name":"wkb_geometry","properties":{"id":412,"navn":"Rød granitskulptur","loebenummer":334,"web_id":427,"x":723080,"y":6178325}},{"type":"Feature","id":"monumenter.307","geometry":{"type":"Point","coordinates":[12.580058227716789,55.67795238953029]},"geometry_name":"wkb_geometry","properties":{"id":413,"navn":"Moving the World","loebenummer":335,"web_id":430,"x":725080,"y":6176048}},{"type":"Feature","id":"monumenter.308","geometry":{"type":"Point","coordinates":[12.588456855925063,55.69418922054228]},"geometry_name":"wkb_geometry","properties":{"id":443,"navn":"Diana til hest","loebenummer":42,"web_id":94,"x":725514,"y":6177881}},{"type":"Feature","id":"monumenter.309","geometry":{"type":"Point","coordinates":[12.507213822413924,55.697190523960664]},"geometry_name":"wkb_geometry","properties":{"id":445,"navn":"Vinge","loebenummer":336,"web_id":432,"x":720394,"y":6177953}},{"type":"Feature","id":"monumenter.310","geometry":{"type":"Point","coordinates":[12.56295463534704,55.725808109971354]},"geometry_name":"wkb_geometry","properties":{"id":446,"navn":"Skulptur","loebenummer":337,"web_id":434,"x":723731,"y":6181314}},{"type":"Feature","id":"monumenter.311","geometry":{"type":"Point","coordinates":[12.58782788170676,55.68041044711768]},"geometry_name":"wkb_geometry","properties":{"id":447,"navn":"Mindeplade for Bethelskibet","loebenummer":338,"web_id":436,"x":725554,"y":6176346}},{"type":"Feature","id":"monumenter.312","geometry":{"type":"Point","coordinates":[12.575601824812685,55.7249872305209]},"geometry_name":"wkb_geometry","properties":{"id":448,"navn":"Rød stålskulptur","loebenummer":339,"web_id":437,"x":724530,"y":6181264}},{"type":"Feature","id":"monumenter.313","geometry":{"type":"Point","coordinates":[12.553309091628664,55.699951956601474]},"geometry_name":"wkb_geometry","properties":{"id":591,"navn":"Pilen","loebenummer":362,"web_id":473,"x":723273,"y":6178408}},{"type":"Feature","id":"monumenter.314","geometry":{"type":"Point","coordinates":[12.545289278374488,55.66711261086521]},"geometry_name":"wkb_geometry","properties":{"id":450,"navn":"Legepladsudsmykning","loebenummer":341,"web_id":439,"x":722956,"y":6174730}},{"type":"Feature","id":"monumenter.315","geometry":{"type":"Point","coordinates":[12.596723178707714,55.688586343161866]},"geometry_name":"wkb_geometry","properties":{"id":451,"navn":"Egetræ til minde om 60-året for besættelsens ophør","loebenummer":342,"web_id":441,"x":726066,"y":6177285}},{"type":"Feature","id":"monumenter.316","geometry":{"type":"Point","coordinates":[12.582093399367354,55.691638213032135]},"geometry_name":"wkb_geometry","properties":{"id":453,"navn":"Taras Shevchenko","loebenummer":356,"web_id":464,"x":725129,"y":6177576}},{"type":"Feature","id":"monumenter.317","geometry":{"type":"Point","coordinates":[12.51466130030684,55.69205145091232]},"geometry_name":"wkb_geometry","properties":{"id":456,"navn":"Dreng med fugleunger","loebenummer":88,"web_id":144,"x":720891,"y":6177405}},{"type":"Feature","id":"monumenter.318","geometry":{"type":"Point","coordinates":[12.593302990137172,55.66832939412778]},"geometry_name":"wkb_geometry","properties":{"id":481,"navn":"Danske flyveres minde","loebenummer":122,"web_id":173,"x":725968,"y":6175021}},{"type":"Feature","id":"monumenter.319","geometry":{"type":"Point","coordinates":[12.56947519268467,55.67561538914776]},"geometry_name":"wkb_geometry","properties":{"id":490,"navn":"To væbnere","loebenummer":176,"web_id":221,"x":724428,"y":6175753}},{"type":"Feature","id":"monumenter.320","geometry":{"type":"Point","coordinates":[12.569627299333984,55.67570338318378]},"geometry_name":"wkb_geometry","properties":{"id":491,"navn":"To væbnere","loebenummer":176,"web_id":221,"x":724437,"y":6175764}},{"type":"Feature","id":"monumenter.321","geometry":{"type":"Point","coordinates":[12.530190760942354,55.72284491384975]},"geometry_name":"wkb_geometry","properties":{"id":492,"navn":"Tre sten","loebenummer":343,"web_id":443,"x":721692,"y":6180880}},{"type":"Feature","id":"monumenter.322","geometry":{"type":"Point","coordinates":[12.59971094519962,55.66502580687921]},"geometry_name":"wkb_geometry","properties":{"id":493,"navn":"Dansk Cyklist Forbunds cykelstipris 1983","loebenummer":340,"web_id":438,"x":726389,"y":6174674}},{"type":"Feature","id":"monumenter.323","geometry":{"type":"Point","coordinates":[12.568555959212192,55.703808026829755]},"geometry_name":"wkb_geometry","properties":{"id":494,"navn":"Kvartmilesten","loebenummer":344,"web_id":446,"x":724209,"y":6178886}},{"type":"Feature","id":"monumenter.324","geometry":{"type":"Point","coordinates":[12.561681157621672,55.69600685036974]},"geometry_name":"wkb_geometry","properties":{"id":495,"navn":"Kvartmilesten","loebenummer":345,"web_id":447,"x":723822,"y":6177996}},{"type":"Feature","id":"monumenter.325","geometry":{"type":"Point","coordinates":[12.60312901328552,55.68099245477339]},"geometry_name":"wkb_geometry","properties":{"id":496,"navn":"Theophilus Hansen","loebenummer":346,"web_id":450,"x":726512,"y":6176461}},{"type":"Feature","id":"monumenter.326","geometry":{"type":"Point","coordinates":[12.601178356657352,55.70359311901717]},"geometry_name":"wkb_geometry","properties":{"id":498,"navn":"Theresienstadt-monumentet","loebenummer":348,"web_id":453,"x":726259,"y":6178968}},{"type":"Feature","id":"monumenter.327","geometry":{"type":"Point","coordinates":[12.498605890511607,55.70400411727005]},"geometry_name":"wkb_geometry","properties":{"id":502,"navn":"Carlstad","loebenummer":349,"web_id":454,"x":719815,"y":6178684}},{"type":"Feature","id":"monumenter.328","geometry":{"type":"Point","coordinates":[12.556821879824899,55.665742310590126]},"geometry_name":"wkb_geometry","properties":{"id":510,"navn":"Cyklerne","loebenummer":350,"web_id":455,"x":723689,"y":6174615}},{"type":"Feature","id":"monumenter.329","geometry":{"type":"Point","coordinates":[12.580556017637173,55.70164673221835]},"geometry_name":"wkb_geometry","properties":{"id":511,"navn":"Victor Borge","loebenummer":351,"web_id":458,"x":724975,"y":6178684}},{"type":"Feature","id":"monumenter.330","geometry":{"type":"Point","coordinates":[12.596536729918558,55.6883449336689]},"geometry_name":"wkb_geometry","properties":{"id":513,"navn":"Kaj Birksted","loebenummer":352,"web_id":463,"x":726055,"y":6177257}},{"type":"Feature","id":"monumenter.331","geometry":{"type":"Point","coordinates":[12.541616624457687,55.69888080470557]},"geometry_name":"wkb_geometry","properties":{"id":514,"navn":"Farvel til våbnene","loebenummer":353,"web_id":465,"x":722545,"y":6178251}},{"type":"Feature","id":"monumenter.332","geometry":{"type":"Point","coordinates":[12.573508510133113,55.70509582935895]},"geometry_name":"wkb_geometry","properties":{"id":518,"navn":"Borgmester H.C.V. Møller","loebenummer":164,"web_id":210,"x":724512,"y":6179045}},{"type":"Feature","id":"monumenter.333","geometry":{"type":"Point","coordinates":[12.490721142887107,55.68772213389881]},"geometry_name":"wkb_geometry","properties":{"id":527,"navn":"Søjle","loebenummer":354,"web_id":461,"x":719411,"y":6176848}},{"type":"Feature","id":"monumenter.334","geometry":{"type":"Point","coordinates":[12.583186554575933,55.6412154778061]},"geometry_name":"wkb_geometry","properties":{"id":532,"navn":"Kærlighedsøen","loebenummer":355,"web_id":462,"x":725488,"y":6171972}},{"type":"Feature","id":"monumenter.335","geometry":{"type":"Point","coordinates":[12.549870172903592,55.69926863918391]},"geometry_name":"wkb_geometry","properties":{"id":533,"navn":"Jorden bærer dit aftryk","loebenummer":357,"web_id":467,"x":723061,"y":6178321}},{"type":"Feature","id":"monumenter.336","geometry":{"type":"Point","coordinates":[12.54635245895234,55.687572081986985]},"geometry_name":"wkb_geometry","properties":{"id":534,"navn":"Jorden bærer dit aftryk","loebenummer":357,"web_id":467,"x":722907,"y":6177009}},{"type":"Feature","id":"monumenter.337","geometry":{"type":"Point","coordinates":[12.557704677031142,55.68625439729112]},"geometry_name":"wkb_geometry","properties":{"id":535,"navn":"Jorden bærer dit aftryk","loebenummer":357,"web_id":467,"x":723628,"y":6176899}},{"type":"Feature","id":"monumenter.338","geometry":{"type":"Point","coordinates":[12.538214066277446,55.70120889270932]},"geometry_name":"wkb_geometry","properties":{"id":536,"navn":"Jorden bærer dit aftryk","loebenummer":357,"web_id":467,"x":722318,"y":6178499}},{"type":"Feature","id":"monumenter.339","geometry":{"type":"Point","coordinates":[12.551692925036269,55.69234107409296]},"geometry_name":"wkb_geometry","properties":{"id":538,"navn":"Jorden bærer dit aftryk","loebenummer":357,"web_id":467,"x":723215,"y":6177556}},{"type":"Feature","id":"monumenter.340","geometry":{"type":"Point","coordinates":[12.56248363464473,55.68712470495869]},"geometry_name":"wkb_geometry","properties":{"id":539,"navn":"Jorden bærer dit aftryk","loebenummer":357,"web_id":467,"x":723923,"y":6177011}},{"type":"Feature","id":"monumenter.341","geometry":{"type":"Point","coordinates":[12.557879792597374,55.69355847305541]},"geometry_name":"wkb_geometry","properties":{"id":540,"navn":"Jorden bærer dit aftryk","loebenummer":357,"web_id":467,"x":723597,"y":6177711}},{"type":"Feature","id":"monumenter.342","geometry":{"type":"Point","coordinates":[12.544709446725275,55.686687226232074]},"geometry_name":"wkb_geometry","properties":{"id":547,"navn":"Spydsspidsen","loebenummer":358,"web_id":468,"x":722809,"y":6176905}},{"type":"Feature","id":"monumenter.343","geometry":{"type":"Point","coordinates":[12.544549852021888,55.687284851286925]},"geometry_name":"wkb_geometry","properties":{"id":548,"navn":"Spydsspidsen","loebenummer":358,"web_id":468,"x":722795,"y":6176971}},{"type":"Feature","id":"monumenter.344","geometry":{"type":"Point","coordinates":[12.544216725806123,55.68831838394186]},"geometry_name":"wkb_geometry","properties":{"id":549,"navn":"Spydsspidsen","loebenummer":358,"web_id":468,"x":722768,"y":6177085}},{"type":"Feature","id":"monumenter.345","geometry":{"type":"Point","coordinates":[12.566591093375903,55.694392379887624]},"geometry_name":"wkb_geometry","properties":{"id":550,"navn":"Blå/rød Statement","loebenummer":347,"web_id":470,"x":724139,"y":6177832}},{"type":"Feature","id":"monumenter.346","geometry":{"type":"Point","coordinates":[12.59059463036504,55.68179229360938]},"geometry_name":"wkb_geometry","properties":{"id":592,"navn":"Herman Bang","loebenummer":360,"web_id":471,"x":725720,"y":6176509}},{"type":"Feature","id":"monumenter.347","geometry":{"type":"Point","coordinates":[12.571304927353118,55.67569888850104]},"geometry_name":"wkb_geometry","properties":{"id":593,"navn":"Talerstol","loebenummer":361,"web_id":472,"x":724543,"y":6175769}},{"type":"Feature","id":"monumenter.348","geometry":{"type":"Point","coordinates":[12.528863172326588,55.647186114273985]},"geometry_name":"wkb_geometry","properties":{"id":570,"navn":"Punktet","loebenummer":359,"web_id":469,"x":722037,"y":6172461}}],"crs":{"type":"EPSG","properties":{"code":"4326"}}}