{"type":"FeatureCollection","features":[{"type":"Feature","id":"vandtappested.1","geometry":{"type":"Point","coordinates":[12.564954785704998,55.701166128610595]},"geometry_name":"wkb_geometry","properties":{"id":15,"adresse":"Fælledparksøen ved broen"}},{"type":"Feature","id":"vandtappested.2","geometry":{"type":"Point","coordinates":[12.456272597719162,55.71791726751384]},"geometry_name":"wkb_geometry","properties":{"id":16,"adresse":"HOFORs Kilde 13, Pilebro"}},{"type":"Feature","id":"vandtappested.3","geometry":{"type":"Point","coordinates":[12.614887736444068,55.6951504651728]},"geometry_name":"wkb_geometry","properties":{"id":17,"adresse":"HOFOR, Lynetten, Refshalevej 250"}},{"type":"Feature","id":"vandtappested.4","geometry":{"type":"Point","coordinates":[12.637335879906985,55.6499167285981]},"geometry_name":"wkb_geometry","properties":{"id":6,"adresse":"Kastrupfortet på Materielpladsen"}},{"type":"Feature","id":"vandtappested.5","geometry":{"type":"Point","coordinates":[12.587661920201448,55.65435271067229]},"geometry_name":"wkb_geometry","properties":{"id":7,"adresse":"Den landskabelige kanal ved broen"}},{"type":"Feature","id":"vandtappested.6","geometry":{"type":"Point","coordinates":[12.474990895775804,55.67302202778778]},"geometry_name":"wkb_geometry","properties":{"id":10,"adresse":"Damhussøen ved Damhuskroen"}},{"type":"Feature","id":"vandtappested.7","geometry":{"type":"Point","coordinates":[12.486157865712372,55.7091840076095]},"geometry_name":"wkb_geometry","properties":{"id":11,"adresse":"Åkandevej ved formandsskuret"}},{"type":"Feature","id":"vandtappested.8","geometry":{"type":"Point","coordinates":[12.522807241461066,55.7216430427115]},"geometry_name":"wkb_geometry","properties":{"id":12,"adresse":"Moseskellet 47"}},{"type":"Feature","id":"vandtappested.9","geometry":{"type":"Point","coordinates":[12.580572886108667,55.68967329649998]},"geometry_name":"wkb_geometry","properties":{"id":13,"adresse":"Øster Anlæg, på materielpladsen"}},{"type":"Feature","id":"vandtappested.10","geometry":{"type":"Point","coordinates":[12.56373578857098,55.699768595921654]},"geometry_name":"wkb_geometry","properties":{"id":14,"adresse":"LAR tank på Materielpladsen"}}],"crs":{"type":"EPSG","properties":{"code":"4326"}}}